{"type":"FeatureCollection","features":[{"type":"Feature","properties":{"name":"DURRES","lng":19.456,"lat":41.3032667,"portId":13497},"geometry":{"type":"Point","coordinates":[19.456,41.3032667]}},{"type":"Feature","properties":{"name":"VLORE","lng":19.4443833,"lat":40.4712,"portId":18200},"geometry":{"type":"Point","coordinates":[19.4443833,40.4712]}},{"type":"Feature","properties":{"name":"PORT METHANIER","lng":6.94005,"lat":36.8847833,"portId":13304},"geometry":{"type":"Point","coordinates":[6.94005,36.8847833]}},{"type":"Feature","properties":{"name":"BETHIOUA","lng":-0.2279333,"lat":35.8202667,"portId":13312},"geometry":{"type":"Point","coordinates":[-0.2279333,35.8202667]}},{"type":"Feature","properties":{"name":"ALGIERS","lng":3.0669626,"lat":36.75800705,"portId":13523},"geometry":{"type":"Point","coordinates":[3.0669626,36.75800705]}},{"type":"Feature","properties":{"name":"ANNABA","lng":7.78165,"lat":36.9013333,"portId":13553},"geometry":{"type":"Point","coordinates":[7.78165,36.9013333]}},{"type":"Feature","properties":{"name":"ARZEW","lng":-0.298339581,"lat":35.8466667,"portId":13567},"geometry":{"type":"Point","coordinates":[-0.298339581,35.8466667]}},{"type":"Feature","properties":{"name":"BEJAIA","lng":5.0999167,"lat":36.7353833,"portId":13584},"geometry":{"type":"Point","coordinates":[5.0999167,36.7353833]}},{"type":"Feature","properties":{"name":"ORAN","lng":-0.65,"lat":35.71666718,"portId":13678},"geometry":{"type":"Point","coordinates":[-0.65,35.71666718]}},{"type":"Feature","properties":{"name":"SKIKDA","lng":6.904995319,"lat":36.8841362,"portId":15990},"geometry":{"type":"Point","coordinates":[6.904995319,36.8841362]}},{"type":"Feature","properties":{"name":"ARZEW EL-DJEDID","lng":-0.2279333,"lat":35.8202667,"portId":25762},"geometry":{"type":"Point","coordinates":[-0.2279333,35.8202667]}},{"type":"Feature","properties":{"name":"BONE","lng":7.78165,"lat":36.9013333,"portId":209209},"geometry":{"type":"Point","coordinates":[7.78165,36.9013333]}},{"type":"Feature","properties":{"name":"PHILIPPEVILLE","lng":6.904995319,"lat":36.8841362,"portId":209210},"geometry":{"type":"Point","coordinates":[6.904995319,36.8841362]}},{"type":"Feature","properties":{"name":"DP WORLD DJAZAIR","lng":3.0669626,"lat":36.75800705,"portId":384969},"geometry":{"type":"Point","coordinates":[3.0669626,36.75800705]}},{"type":"Feature","properties":{"name":"PAGO-PAGO","lng":-170.6666667,"lat":-14.28333378,"portId":14903},"geometry":{"type":"Point","coordinates":[-170.6666667,-14.28333378]}},{"type":"Feature","properties":{"name":"CABINDA","lng":12.18333333,"lat":-5.55000019,"portId":13726},"geometry":{"type":"Point","coordinates":[12.18333333,-5.55000019]}},{"type":"Feature","properties":{"name":"LOBITO","lng":13.5883333,"lat":-12.3190667,"portId":13738},"geometry":{"type":"Point","coordinates":[13.5883333,-12.3190667]}},{"type":"Feature","properties":{"name":"NAMIBE","lng":12.13335,"lat":-15.1617333,"portId":14014},"geometry":{"type":"Point","coordinates":[12.13335,-15.1617333]}},{"type":"Feature","properties":{"name":"LUANDA","lng":13.26666667,"lat":-8.783333778,"portId":16244},"geometry":{"type":"Point","coordinates":[13.26666667,-8.783333778]}},{"type":"Feature","properties":{"name":"MALONGO TERMINAL","lng":12.06666667,"lat":-5.433333396,"portId":17926},"geometry":{"type":"Point","coordinates":[12.06666667,-5.433333396]}},{"type":"Feature","properties":{"name":"MOCAMEDES","lng":12.13335,"lat":-15.1617333,"portId":22046},"geometry":{"type":"Point","coordinates":[12.13335,-15.1617333]}},{"type":"Feature","properties":{"name":"PALANCA TERMINAL","lng":12.4,"lat":-6.966666698,"portId":22052},"geometry":{"type":"Point","coordinates":[12.4,-6.966666698]}},{"type":"Feature","properties":{"name":"TAKULA TERMINAL","lng":11.78333333,"lat":-5.216666698,"portId":23499},"geometry":{"type":"Point","coordinates":[11.78333333,-5.216666698]}},{"type":"Feature","properties":{"name":"PORTO SACO","lng":12.15,"lat":-15.16666698,"portId":23676},"geometry":{"type":"Point","coordinates":[12.15,-15.16666698]}},{"type":"Feature","properties":{"name":"ESSUNGO MARINE TERMINAL","lng":12.15,"lat":-6.333333492,"portId":28232},"geometry":{"type":"Point","coordinates":[12.15,-6.333333492]}},{"type":"Feature","properties":{"name":"KIAME MARINE TERMINAL","lng":12.38333333,"lat":-7.333333492,"portId":219468},"geometry":{"type":"Point","coordinates":[12.38333333,-7.333333492]}},{"type":"Feature","properties":{"name":"FPSO KUITO","lng":11.5,"lat":-5.4666665,"portId":252250},"geometry":{"type":"Point","coordinates":[11.5,-5.4666665]}},{"type":"Feature","properties":{"name":"GIRASSOL TERMINAL","lng":11.68333333,"lat":-7.633333206,"portId":252266},"geometry":{"type":"Point","coordinates":[11.68333333,-7.633333206]}},{"type":"Feature","properties":{"name":"FPSO N'GOMA","lng":11.03345,"lat":-6.1407833,"portId":272852},"geometry":{"type":"Point","coordinates":[11.03345,-6.1407833]}},{"type":"Feature","properties":{"name":"KIZOMBA A TERMINAL","lng":11.05,"lat":-6.3166667,"portId":337047},"geometry":{"type":"Point","coordinates":[11.05,-6.3166667]}},{"type":"Feature","properties":{"name":"KIZOMBA B TERMINAL","lng":11.15,"lat":-6.3333333,"portId":337049},"geometry":{"type":"Point","coordinates":[11.15,-6.3333333]}},{"type":"Feature","properties":{"name":"DALIA TERMINAL","lng":11.75,"lat":-7.6833333,"portId":337052},"geometry":{"type":"Point","coordinates":[11.75,-7.6833333]}},{"type":"Feature","properties":{"name":"GREATER PLUTONIO TERMINAL","lng":12.1,"lat":-7.8333333,"portId":337078},"geometry":{"type":"Point","coordinates":[12.1,-7.8333333]}},{"type":"Feature","properties":{"name":"KIZOMBA C TERMINAL","lng":11.2748667,"lat":-6.2380333,"portId":339788},"geometry":{"type":"Point","coordinates":[11.2748667,-6.2380333]}},{"type":"Feature","properties":{"name":"FPSO PAZFLOR","lng":12.1103667,"lat":-7.59275,"portId":415088},"geometry":{"type":"Point","coordinates":[12.1103667,-7.59275]}},{"type":"Feature","properties":{"name":"FPSO GIMBOA","lng":12.1681167,"lat":-7.5432833,"portId":416003},"geometry":{"type":"Point","coordinates":[12.1681167,-7.5432833]}},{"type":"Feature","properties":{"name":"ST JOHN'S","lng":-61.8577333,"lat":17.1229667,"portId":19153},"geometry":{"type":"Point","coordinates":[-61.8577333,17.1229667]}},{"type":"Feature","properties":{"name":"INGENIERO WHITE","lng":-62.2671833,"lat":-38.7935667,"portId":12089},"geometry":{"type":"Point","coordinates":[-62.2671833,-38.7935667]}},{"type":"Feature","properties":{"name":"PUERTO GALVAN","lng":-62.298,"lat":-38.7849333,"portId":12254},"geometry":{"type":"Point","coordinates":[-62.298,-38.7849333]}},{"type":"Feature","properties":{"name":"SAN MARTIN","lng":-60.71666667,"lat":-32.78333282,"portId":12330},"geometry":{"type":"Point","coordinates":[-60.71666667,-32.78333282]}},{"type":"Feature","properties":{"name":"BAHIA BLANCA","lng":-62.2867833,"lat":-38.7915167,"portId":14113},"geometry":{"type":"Point","coordinates":[-62.2867833,-38.7915167]}},{"type":"Feature","properties":{"name":"CAMPANA","lng":-58.9557333,"lat":-34.1545,"portId":14214},"geometry":{"type":"Point","coordinates":[-58.9557333,-34.1545]}},{"type":"Feature","properties":{"name":"COMODORO RIVADAVIA","lng":-67.43333333,"lat":-45.84999847,"portId":14247},"geometry":{"type":"Point","coordinates":[-67.43333333,-45.84999847]}},{"type":"Feature","properties":{"name":"DESEADO","lng":-65.9079333,"lat":-47.7555833,"portId":14331},"geometry":{"type":"Point","coordinates":[-65.9079333,-47.7555833]}},{"type":"Feature","properties":{"name":"LA PLATA","lng":-57.8880333,"lat":-34.8500167,"portId":14483},"geometry":{"type":"Point","coordinates":[-57.8880333,-34.8500167]}},{"type":"Feature","properties":{"name":"MAR DEL PLATA","lng":-57.53333333,"lat":-38.0,"portId":14536},"geometry":{"type":"Point","coordinates":[-57.53333333,-38.0]}},{"type":"Feature","properties":{"name":"ROSARIO","lng":-60.6134,"lat":-32.9771333,"portId":14933},"geometry":{"type":"Point","coordinates":[-60.6134,-32.9771333]}},{"type":"Feature","properties":{"name":"PUERTO INGENIERO ROCCA","lng":-57.88333333,"lat":-34.84999847,"portId":15012},"geometry":{"type":"Point","coordinates":[-57.88333333,-34.84999847]}},{"type":"Feature","properties":{"name":"SAN LORENZO - SAN MARTIN","lng":-60.7193,"lat":-32.6995,"portId":15030},"geometry":{"type":"Point","coordinates":[-60.7193,-32.6995]}},{"type":"Feature","properties":{"name":"SAN NICOLAS","lng":-60.17555,"lat":-33.3496333,"portId":15087},"geometry":{"type":"Point","coordinates":[-60.17555,-33.3496333]}},{"type":"Feature","properties":{"name":"SAN SEBASTIAN BAY","lng":-68.275,"lat":-53.2746667,"portId":15313},"geometry":{"type":"Point","coordinates":[-68.275,-53.2746667]}},{"type":"Feature","properties":{"name":"SANTA FE","lng":-60.7,"lat":-31.64999962,"portId":15413},"geometry":{"type":"Point","coordinates":[-60.7,-31.64999962]}},{"type":"Feature","properties":{"name":"ZARATE","lng":-59.0150833,"lat":-34.0865,"portId":15520},"geometry":{"type":"Point","coordinates":[-59.0150833,-34.0865]}},{"type":"Feature","properties":{"name":"PUNTA CIGUENA","lng":-62.0445,"lat":-38.9456667,"portId":16764},"geometry":{"type":"Point","coordinates":[-62.0445,-38.9456667]}},{"type":"Feature","properties":{"name":"PUNTA ANCLA","lng":-62.0,"lat":-38.95000076,"portId":16800},"geometry":{"type":"Point","coordinates":[-62.0,-38.95000076]}},{"type":"Feature","properties":{"name":"PUERTO ROSALES","lng":-62.0705167,"lat":-38.93015,"portId":16943},"geometry":{"type":"Point","coordinates":[-62.0705167,-38.93015]}},{"type":"Feature","properties":{"name":"CALETA OLIVARES","lng":-67.36666667,"lat":-45.76666641,"portId":22511},"geometry":{"type":"Point","coordinates":[-67.36666667,-45.76666641]}},{"type":"Feature","properties":{"name":"CALETA CORDOVA","lng":-67.35,"lat":-45.71666718,"portId":22558},"geometry":{"type":"Point","coordinates":[-67.35,-45.71666718]}},{"type":"Feature","properties":{"name":"CALETA OLIVIA","lng":-67.4781833,"lat":-46.4252167,"portId":22603},"geometry":{"type":"Point","coordinates":[-67.4781833,-46.4252167]}},{"type":"Feature","properties":{"name":"INGENIERO BUITRANGO","lng":-60.03333333,"lat":-33.5,"portId":23326},"geometry":{"type":"Point","coordinates":[-60.03333333,-33.5]}},{"type":"Feature","properties":{"name":"NECOCHEA","lng":-58.7142,"lat":-38.5754667,"portId":23653},"geometry":{"type":"Point","coordinates":[-58.7142,-38.5754667]}},{"type":"Feature","properties":{"name":"BUENOS AIRES","lng":-58.3437,"lat":-34.6062333,"portId":26670},"geometry":{"type":"Point","coordinates":[-58.3437,-34.6062333]}},{"type":"Feature","properties":{"name":"PUERTO QUEQUEN","lng":-58.6957,"lat":-38.5834333,"portId":26969},"geometry":{"type":"Point","coordinates":[-58.6957,-38.5834333]}},{"type":"Feature","properties":{"name":"PUNTA LOYOLA","lng":-69.01666667,"lat":-51.59999847,"portId":30032},"geometry":{"type":"Point","coordinates":[-69.01666667,-51.59999847]}},{"type":"Feature","properties":{"name":"PUNTA ALVEAR","lng":-60.6,"lat":-32.95000076,"portId":210734},"geometry":{"type":"Point","coordinates":[-60.6,-32.95000076]}},{"type":"Feature","properties":{"name":"GENERAL LAGOS","lng":-60.56666565,"lat":-33.08333206,"portId":210735},"geometry":{"type":"Point","coordinates":[-60.56666565,-33.08333206]}},{"type":"Feature","properties":{"name":"RIVER PLATE LIGHTERING AREAS","lng":-56.0,"lat":-35.5,"portId":216382},"geometry":{"type":"Point","coordinates":[-56.0,-35.5]}},{"type":"Feature","properties":{"name":"RIO CULLEN MARINE TERMINAL","lng":-68.2247167,"lat":-52.80305,"portId":223582},"geometry":{"type":"Point","coordinates":[-68.2247167,-52.80305]}},{"type":"Feature","properties":{"name":"BARCADERA","lng":-69.98333333,"lat":12.48333359,"portId":23435},"geometry":{"type":"Point","coordinates":[-69.98333333,12.48333359]}},{"type":"Feature","properties":{"name":"ORANJESTAD","lng":-69.98333333,"lat":12.51666641,"portId":23665},"geometry":{"type":"Point","coordinates":[-69.98333333,12.51666641]}},{"type":"Feature","properties":{"name":"SAN NICOLAS","lng":-69.9226667,"lat":12.4308667,"portId":23679},"geometry":{"type":"Point","coordinates":[-69.9226667,12.4308667]}},{"type":"Feature","properties":{"name":"STS TRANSHIPMENT AREA ARUBA","lng":-69.9666667,"lat":12.4166667,"portId":375739},"geometry":{"type":"Point","coordinates":[-69.9666667,12.4166667]}},{"type":"Feature","properties":{"name":"WITHNELL BAY","lng":116.7603833,"lat":-20.58435,"portId":10005},"geometry":{"type":"Point","coordinates":[116.7603833,-20.58435]}},{"type":"Feature","properties":{"name":"MISTAKEN ISLAND","lng":116.6610333,"lat":-20.6507333,"portId":10030},"geometry":{"type":"Point","coordinates":[116.6610333,-20.6507333]}},{"type":"Feature","properties":{"name":"EMU BAY","lng":145.9235167,"lat":-41.0473333,"portId":10747},"geometry":{"type":"Point","coordinates":[145.9235167,-41.0473333]}},{"type":"Feature","properties":{"name":"WESTERN PORT","lng":145.2465833,"lat":-38.3944,"portId":11217},"geometry":{"type":"Point","coordinates":[145.2465833,-38.3944]}},{"type":"Feature","properties":{"name":"LONG REACH","lng":146.9,"lat":-41.15000153,"portId":13717},"geometry":{"type":"Point","coordinates":[146.9,-41.15000153]}},{"type":"Feature","properties":{"name":"LORIM POINT","lng":141.8666667,"lat":-12.66666698,"portId":14082},"geometry":{"type":"Point","coordinates":[141.8666667,-12.66666698]}},{"type":"Feature","properties":{"name":"HUMBUG POINT","lng":141.8666667,"lat":-12.66666698,"portId":14106},"geometry":{"type":"Point","coordinates":[141.8666667,-12.66666698]}},{"type":"Feature","properties":{"name":"ADELAIDE","lng":138.5081667,"lat":-34.8299,"portId":15568},"geometry":{"type":"Point","coordinates":[138.5081667,-34.8299]}},{"type":"Feature","properties":{"name":"ALBANY","lng":117.8923833,"lat":-35.0361,"portId":15588},"geometry":{"type":"Point","coordinates":[117.8923833,-35.0361]}},{"type":"Feature","properties":{"name":"BARROW ISLAND","lng":115.4529667,"lat":-20.83215,"portId":15701},"geometry":{"type":"Point","coordinates":[115.4529667,-20.83215]}},{"type":"Feature","properties":{"name":"BOTANY BAY","lng":151.2333333,"lat":-34.0,"portId":15752},"geometry":{"type":"Point","coordinates":[151.2333333,-34.0]}},{"type":"Feature","properties":{"name":"BRISBANE","lng":153.1694667,"lat":-27.3509667,"portId":15925},"geometry":{"type":"Point","coordinates":[153.1694667,-27.3509667]}},{"type":"Feature","properties":{"name":"BROOME","lng":122.2218333,"lat":-18.00205,"portId":15951},"geometry":{"type":"Point","coordinates":[122.2218333,-18.00205]}},{"type":"Feature","properties":{"name":"BUNBURY","lng":115.6333333,"lat":-33.31666565,"portId":15979},"geometry":{"type":"Point","coordinates":[115.6333333,-33.31666565]}},{"type":"Feature","properties":{"name":"PORT BUNDABERG","lng":152.3802667,"lat":-24.7725667,"portId":16074},"geometry":{"type":"Point","coordinates":[152.3802667,-24.7725667]}},{"type":"Feature","properties":{"name":"CAIRNS","lng":145.7833333,"lat":-16.91666603,"portId":16228},"geometry":{"type":"Point","coordinates":[145.7833333,-16.91666603]}},{"type":"Feature","properties":{"name":"DAMPIER","lng":116.7445833,"lat":-20.6128167,"portId":16335},"geometry":{"type":"Point","coordinates":[116.7445833,-20.6128167]}},{"type":"Feature","properties":{"name":"DARWIN","lng":130.8333333,"lat":-12.4666667,"portId":16369},"geometry":{"type":"Point","coordinates":[130.8333333,-12.4666667]}},{"type":"Feature","properties":{"name":"DEVONPORT","lng":146.3666667,"lat":-41.15000153,"portId":16459},"geometry":{"type":"Point","coordinates":[146.3666667,-41.15000153]}},{"type":"Feature","properties":{"name":"EDEN","lng":149.9013333,"lat":-37.0845333,"portId":16471},"geometry":{"type":"Point","coordinates":[149.9013333,-37.0845333]}},{"type":"Feature","properties":{"name":"FREMANTLE","lng":115.7299167,"lat":-32.0561333,"portId":16558},"geometry":{"type":"Point","coordinates":[115.7299167,-32.0561333]}},{"type":"Feature","properties":{"name":"GEELONG","lng":144.6793667,"lat":-38.0585667,"portId":16631},"geometry":{"type":"Point","coordinates":[144.6793667,-38.0585667]}},{"type":"Feature","properties":{"name":"GERALDTON","lng":114.6,"lat":-28.76666641,"portId":16663},"geometry":{"type":"Point","coordinates":[114.6,-28.76666641]}},{"type":"Feature","properties":{"name":"GLADSTONE","lng":151.2967833,"lat":-23.8192333,"portId":16718},"geometry":{"type":"Point","coordinates":[151.2967833,-23.8192333]}},{"type":"Feature","properties":{"name":"GOVE","lng":136.6809667,"lat":-12.2102167,"portId":16796},"geometry":{"type":"Point","coordinates":[136.6809667,-12.2102167]}},{"type":"Feature","properties":{"name":"BELL BAY","lng":146.8712833,"lat":-41.1388333,"portId":17018},"geometry":{"type":"Point","coordinates":[146.8712833,-41.1388333]}},{"type":"Feature","properties":{"name":"MACKAY","lng":149.2327,"lat":-21.10545,"portId":17126},"geometry":{"type":"Point","coordinates":[149.2327,-21.10545]}},{"type":"Feature","properties":{"name":"MELBOURNE","lng":144.9203333,"lat":-37.8560167,"portId":17218},"geometry":{"type":"Point","coordinates":[144.9203333,-37.8560167]}},{"type":"Feature","properties":{"name":"MILNER BAY","lng":136.41875,"lat":-13.8640833,"portId":17296},"geometry":{"type":"Point","coordinates":[136.41875,-13.8640833]}},{"type":"Feature","properties":{"name":"NEWCASTLE","lng":151.8016167,"lat":-32.9145,"portId":17322},"geometry":{"type":"Point","coordinates":[151.8016167,-32.9145]}},{"type":"Feature","properties":{"name":"PORT HEDLAND","lng":118.57655,"lat":-20.3048667,"portId":17538},"geometry":{"type":"Point","coordinates":[118.57655,-20.3048667]}},{"type":"Feature","properties":{"name":"PORT KEMBLA","lng":150.9109167,"lat":-34.4663,"portId":17572},"geometry":{"type":"Point","coordinates":[150.9109167,-34.4663]}},{"type":"Feature","properties":{"name":"PORT LATTA","lng":145.3833333,"lat":-40.84999847,"portId":17616},"geometry":{"type":"Point","coordinates":[145.3833333,-40.84999847]}},{"type":"Feature","properties":{"name":"PORT LINCOLN","lng":135.8707333,"lat":-34.7122333,"portId":17662},"geometry":{"type":"Point","coordinates":[135.8707333,-34.7122333]}},{"type":"Feature","properties":{"name":"PORT WALCOTT","lng":117.2055667,"lat":-20.57385,"portId":17831},"geometry":{"type":"Point","coordinates":[117.2055667,-20.57385]}},{"type":"Feature","properties":{"name":"PORTLAND","lng":141.6166667,"lat":-38.33333206,"portId":17843},"geometry":{"type":"Point","coordinates":[141.6166667,-38.33333206]}},{"type":"Feature","properties":{"name":"SYDNEY","lng":151.1918333,"lat":-33.84155,"portId":18050},"geometry":{"type":"Point","coordinates":[151.1918333,-33.84155]}},{"type":"Feature","properties":{"name":"THEVENARD","lng":133.5666667,"lat":-32.20000076,"portId":18069},"geometry":{"type":"Point","coordinates":[133.5666667,-32.20000076]}},{"type":"Feature","properties":{"name":"TOWNSVILLE","lng":146.8338,"lat":-19.2411667,"portId":18152},"geometry":{"type":"Point","coordinates":[146.8338,-19.2411667]}},{"type":"Feature","properties":{"name":"WEIPA","lng":141.85,"lat":-12.66666698,"portId":18202},"geometry":{"type":"Point","coordinates":[141.85,-12.66666698]}},{"type":"Feature","properties":{"name":"HASTINGS","lng":145.2465833,"lat":-38.3944,"portId":18237},"geometry":{"type":"Point","coordinates":[145.2465833,-38.3944]}},{"type":"Feature","properties":{"name":"WHYALLA","lng":137.6,"lat":-33.03333282,"portId":18303},"geometry":{"type":"Point","coordinates":[137.6,-33.03333282]}},{"type":"Feature","properties":{"name":"MACQUARIE POINT","lng":147.3389,"lat":-42.8808167,"portId":19874},"geometry":{"type":"Point","coordinates":[147.3389,-42.8808167]}},{"type":"Feature","properties":{"name":"SELF'S POINT","lng":147.3302,"lat":-42.8462333,"portId":19920},"geometry":{"type":"Point","coordinates":[147.3302,-42.8462333]}},{"type":"Feature","properties":{"name":"TWOFOLD BAY","lng":149.9013333,"lat":-37.0845333,"portId":19969},"geometry":{"type":"Point","coordinates":[149.9013333,-37.0845333]}},{"type":"Feature","properties":{"name":"SNUG COVE","lng":149.95,"lat":-37.04999924,"portId":20024},"geometry":{"type":"Point","coordinates":[149.95,-37.04999924]}},{"type":"Feature","properties":{"name":"MUNGANNO POINT","lng":149.95,"lat":-37.04999924,"portId":20042},"geometry":{"type":"Point","coordinates":[149.95,-37.04999924]}},{"type":"Feature","properties":{"name":"NELSON POINT","lng":118.5833333,"lat":-20.31666756,"portId":20077},"geometry":{"type":"Point","coordinates":[118.5833333,-20.31666756]}},{"type":"Feature","properties":{"name":"FINUCANE ISLAND","lng":118.5666667,"lat":-20.29999924,"portId":20099},"geometry":{"type":"Point","coordinates":[118.5666667,-20.29999924]}},{"type":"Feature","properties":{"name":"FPSO OKHA","lng":116.4451167,"lat":-19.5893667,"portId":21209},"geometry":{"type":"Point","coordinates":[116.4451167,-19.5893667]}},{"type":"Feature","properties":{"name":"GROOTE EYLANDT","lng":136.41875,"lat":-13.8640833,"portId":21616},"geometry":{"type":"Point","coordinates":[136.41875,-13.8640833]}},{"type":"Feature","properties":{"name":"PORT BOTANY","lng":151.2059667,"lat":-33.9750667,"portId":22185},"geometry":{"type":"Point","coordinates":[151.2059667,-33.9750667]}},{"type":"Feature","properties":{"name":"PINKENBA","lng":153.1333333,"lat":-27.43333244,"portId":22381},"geometry":{"type":"Point","coordinates":[153.1333333,-27.43333244]}},{"type":"Feature","properties":{"name":"AIRLIE ISLAND","lng":115.1666667,"lat":-21.33333397,"portId":22530},"geometry":{"type":"Point","coordinates":[115.1666667,-21.33333397]}},{"type":"Feature","properties":{"name":"SALADIN MARINE TERMINAL","lng":115.05,"lat":-21.39999962,"portId":22909},"geometry":{"type":"Point","coordinates":[115.05,-21.39999962]}},{"type":"Feature","properties":{"name":"KURNELL","lng":151.2081,"lat":-33.9973,"portId":23991},"geometry":{"type":"Point","coordinates":[151.2081,-33.9973]}},{"type":"Feature","properties":{"name":"LAUNCESTON","lng":146.7666667,"lat":-41.04999924,"portId":24017},"geometry":{"type":"Point","coordinates":[146.7666667,-41.04999924]}},{"type":"Feature","properties":{"name":"KWINANA","lng":115.75,"lat":-32.23333359,"portId":24447},"geometry":{"type":"Point","coordinates":[115.75,-32.23333359]}},{"type":"Feature","properties":{"name":"DARLING HARBOUR","lng":151.2000167,"lat":-33.8603333,"portId":25552},"geometry":{"type":"Point","coordinates":[151.2000167,-33.8603333]}},{"type":"Feature","properties":{"name":"BLACKWATTLE BAY","lng":151.18965,"lat":-33.8736333,"portId":25568},"geometry":{"type":"Point","coordinates":[151.18965,-33.8736333]}},{"type":"Feature","properties":{"name":"BALMAIN","lng":151.1872167,"lat":-33.8540667,"portId":25693},"geometry":{"type":"Point","coordinates":[151.1872167,-33.8540667]}},{"type":"Feature","properties":{"name":"WHITE BAY","lng":151.1868333,"lat":-33.8619333,"portId":25764},"geometry":{"type":"Point","coordinates":[151.1868333,-33.8619333]}},{"type":"Feature","properties":{"name":"SNAIL'S BAY","lng":151.18725,"lat":-33.84965,"portId":25782},"geometry":{"type":"Point","coordinates":[151.18725,-33.84965]}},{"type":"Feature","properties":{"name":"GORE BAY","lng":151.1869167,"lat":-33.8406667,"portId":25847},"geometry":{"type":"Point","coordinates":[151.1869167,-33.8406667]}},{"type":"Feature","properties":{"name":"BALLAST POINT","lng":151.1905833,"lat":-33.8517167,"portId":25878},"geometry":{"type":"Point","coordinates":[151.1905833,-33.8517167]}},{"type":"Feature","properties":{"name":"BERRY'S BAY","lng":151.1987667,"lat":-33.8454667,"portId":25931},"geometry":{"type":"Point","coordinates":[151.1987667,-33.8454667]}},{"type":"Feature","properties":{"name":"BALL'S HEAD","lng":151.2833333,"lat":-33.83333206,"portId":26041},"geometry":{"type":"Point","coordinates":[151.2833333,-33.83333206]}},{"type":"Feature","properties":{"name":"PYRMONT","lng":151.1946333,"lat":-33.8623667,"portId":26076},"geometry":{"type":"Point","coordinates":[151.1946333,-33.8623667]}},{"type":"Feature","properties":{"name":"BURNIE","lng":145.9235167,"lat":-41.0473333,"portId":26383},"geometry":{"type":"Point","coordinates":[145.9235167,-41.0473333]}},{"type":"Feature","properties":{"name":"BARNEY POINT","lng":151.25,"lat":-23.83333397,"portId":26630},"geometry":{"type":"Point","coordinates":[151.25,-23.83333397]}},{"type":"Feature","properties":{"name":"ESPERANCE","lng":121.8999167,"lat":-33.8684167,"portId":26631},"geometry":{"type":"Point","coordinates":[121.8999167,-33.8684167]}},{"type":"Feature","properties":{"name":"HOBART","lng":147.3446667,"lat":-42.88645,"portId":26694},"geometry":{"type":"Point","coordinates":[147.3446667,-42.88645]}},{"type":"Feature","properties":{"name":"PORT ALMA","lng":150.8633333,"lat":-23.58333397,"portId":26765},"geometry":{"type":"Point","coordinates":[150.8633333,-23.58333397]}},{"type":"Feature","properties":{"name":"WYNDHAM","lng":128.09085,"lat":-15.4544167,"portId":26803},"geometry":{"type":"Point","coordinates":[128.09085,-15.4544167]}},{"type":"Feature","properties":{"name":"JABIRU MARINE TERMINAL","lng":125.0166667,"lat":-11.91666698,"portId":26977},"geometry":{"type":"Point","coordinates":[125.0166667,-11.91666698]}},{"type":"Feature","properties":{"name":"PORT BONYTHON","lng":137.7666667,"lat":-33.01666641,"portId":26985},"geometry":{"type":"Point","coordinates":[137.7666667,-33.01666641]}},{"type":"Feature","properties":{"name":"PORT STANVAC","lng":138.4666667,"lat":-35.09999847,"portId":27014},"geometry":{"type":"Point","coordinates":[138.4666667,-35.09999847]}},{"type":"Feature","properties":{"name":"VARANUS ISLAND TERMINAL","lng":115.5895833,"lat":-20.6444833,"portId":27017},"geometry":{"type":"Point","coordinates":[115.5895833,-20.6444833]}},{"type":"Feature","properties":{"name":"CHALLIS VENTURE TERMINAL","lng":125.0166667,"lat":-12.11666679,"portId":27183},"geometry":{"type":"Point","coordinates":[125.0166667,-12.11666679]}},{"type":"Feature","properties":{"name":"WANDOO MARINE TERMINAL","lng":116.4166667,"lat":-20.14999962,"portId":27333},"geometry":{"type":"Point","coordinates":[116.4166667,-20.14999962]}},{"type":"Feature","properties":{"name":"GRIFFIN VENTURE TERMINAL","lng":114.6333333,"lat":-21.21666718,"portId":27434},"geometry":{"type":"Point","coordinates":[114.6333333,-21.21666718]}},{"type":"Feature","properties":{"name":"EAST INTERCOURSE ISLAND","lng":116.67245,"lat":-20.6482667,"portId":30133},"geometry":{"type":"Point","coordinates":[116.67245,-20.6482667]}},{"type":"Feature","properties":{"name":"PARKER POINT","lng":116.71655,"lat":-20.6366333,"portId":30178},"geometry":{"type":"Point","coordinates":[116.71655,-20.6366333]}},{"type":"Feature","properties":{"name":"SYDNEY COVE","lng":151.2119167,"lat":-33.8571167,"portId":213141},"geometry":{"type":"Point","coordinates":[151.2119167,-33.8571167]}},{"type":"Feature","properties":{"name":"STAG MARINE TERMINAL","lng":116.25,"lat":-20.28333282,"portId":252287},"geometry":{"type":"Point","coordinates":[116.25,-20.28333282]}},{"type":"Feature","properties":{"name":"CAPE LAMBERT","lng":117.2,"lat":-20.58333397,"portId":279447},"geometry":{"type":"Point","coordinates":[117.2,-20.58333397]}},{"type":"Feature","properties":{"name":"BAYU UNDAN TERMINAL","lng":126.6,"lat":-11.05000019,"portId":282333},"geometry":{"type":"Point","coordinates":[126.6,-11.05000019]}},{"type":"Feature","properties":{"name":"MUTINEER-EXETER DEVELOPMENT","lng":116.61175,"lat":-19.27595,"portId":337045},"geometry":{"type":"Point","coordinates":[116.61175,-19.27595]}},{"type":"Feature","properties":{"name":"WOOLLYBUTT TERMINAL","lng":114.90585,"lat":-20.9113833,"portId":337046},"geometry":{"type":"Point","coordinates":[114.90585,-20.9113833]}},{"type":"Feature","properties":{"name":"NGANHURRA TERMINAL","lng":114.0074167,"lat":-21.4814167,"portId":337077},"geometry":{"type":"Point","coordinates":[114.0074167,-21.4814167]}},{"type":"Feature","properties":{"name":"STYBARROW OFFSHORE TERMINAL","lng":113.8247167,"lat":-21.4487667,"portId":339960},"geometry":{"type":"Point","coordinates":[113.8247167,-21.4487667]}},{"type":"Feature","properties":{"name":"KARRATHA","lng":116.6999969,"lat":-20.66666603,"portId":396840},"geometry":{"type":"Point","coordinates":[116.6999969,-20.66666603]}},{"type":"Feature","properties":{"name":"FPSO NORTHERN ENDEAVOUR","lng":125.9843833,"lat":-10.616,"portId":418112},"geometry":{"type":"Point","coordinates":[125.9843833,-10.616]}},{"type":"Feature","properties":{"name":"ANGRA DO HEROISMO","lng":-27.21666667,"lat":38.65000153,"portId":15641},"geometry":{"type":"Point","coordinates":[-27.21666667,38.65000153]}},{"type":"Feature","properties":{"name":"PRAIA DA VITORIA","lng":-27.0501833,"lat":38.7239667,"portId":15673},"geometry":{"type":"Point","coordinates":[-27.0501833,38.7239667]}},{"type":"Feature","properties":{"name":"HORTA","lng":-28.61666667,"lat":38.53333282,"portId":18433},"geometry":{"type":"Point","coordinates":[-28.61666667,38.53333282]}},{"type":"Feature","properties":{"name":"PONTA DELGADA","lng":-25.66666667,"lat":37.73333359,"portId":18476},"geometry":{"type":"Point","coordinates":[-25.66666667,37.73333359]}},{"type":"Feature","properties":{"name":"FREEPORT","lng":-78.7727833,"lat":26.5236,"portId":18533},"geometry":{"type":"Point","coordinates":[-78.7727833,26.5236]}},{"type":"Feature","properties":{"name":"NASSAU","lng":-77.3361,"lat":25.0810333,"portId":18607},"geometry":{"type":"Point","coordinates":[-77.3361,25.0810333]}},{"type":"Feature","properties":{"name":"SOUTH RIDING POINT","lng":-78.223,"lat":26.6154833,"portId":18630},"geometry":{"type":"Point","coordinates":[-78.223,26.6154833]}},{"type":"Feature","properties":{"name":"CLIFTON POINT","lng":-77.5455333,"lat":25.0029,"portId":28820},"geometry":{"type":"Point","coordinates":[-77.5455333,25.0029]}},{"type":"Feature","properties":{"name":"SITRA","lng":50.6583167,"lat":26.16915,"portId":18768},"geometry":{"type":"Point","coordinates":[50.6583167,26.16915]}},{"type":"Feature","properties":{"name":"CHITTAGONG","lng":91.8086,"lat":22.2247167,"portId":18889},"geometry":{"type":"Point","coordinates":[91.8086,22.2247167]}},{"type":"Feature","properties":{"name":"BLACK ROCK TANKER TERMINAL","lng":-59.65,"lat":13.13333321,"portId":13227},"geometry":{"type":"Point","coordinates":[-59.65,13.13333321]}},{"type":"Feature","properties":{"name":"BRIDGETOWN","lng":-59.6,"lat":13.08333302,"portId":18924},"geometry":{"type":"Point","coordinates":[-59.6,13.08333302]}},{"type":"Feature","properties":{"name":"OISTINS BAY TANKER TERMINAL","lng":-59.55,"lat":13.0666666,"portId":28679},"geometry":{"type":"Point","coordinates":[-59.55,13.0666666]}},{"type":"Feature","properties":{"name":"ANTWERP","lng":4.3192833,"lat":51.2868167,"portId":19057},"geometry":{"type":"Point","coordinates":[4.3192833,51.2868167]}},{"type":"Feature","properties":{"name":"GHENT","lng":3.7881833,"lat":51.1623,"portId":19334},"geometry":{"type":"Point","coordinates":[3.7881833,51.1623]}},{"type":"Feature","properties":{"name":"ZEEBRUGGE","lng":3.1916833,"lat":51.36265,"portId":19473},"geometry":{"type":"Point","coordinates":[3.1916833,51.36265]}},{"type":"Feature","properties":{"name":"BELIZE CITY","lng":-88.1921833,"lat":17.47685,"portId":19492},"geometry":{"type":"Point","coordinates":[-88.1921833,17.47685]}},{"type":"Feature","properties":{"name":"BIG CREEK","lng":-88.4050833,"lat":16.5129833,"portId":259834},"geometry":{"type":"Point","coordinates":[-88.4050833,16.5129833]}},{"type":"Feature","properties":{"name":"COTONOU","lng":2.4319167,"lat":6.3433333,"portId":16450},"geometry":{"type":"Point","coordinates":[2.4319167,6.3433333]}},{"type":"Feature","properties":{"name":"SEME TERMINAL","lng":2.666666666,"lat":6.25,"portId":23503},"geometry":{"type":"Point","coordinates":[2.666666666,6.25]}},{"type":"Feature","properties":{"name":"ST GEORGE'S","lng":-64.7,"lat":32.36666489,"portId":19615},"geometry":{"type":"Point","coordinates":[-64.7,32.36666489]}},{"type":"Feature","properties":{"name":"BONAIRE TERMINAL","lng":-68.38333333,"lat":12.21666622,"portId":21486},"geometry":{"type":"Point","coordinates":[-68.38333333,12.21666622]}},{"type":"Feature","properties":{"name":"BOPEC TERMINAL","lng":-68.38333333,"lat":12.21666622,"portId":25244},"geometry":{"type":"Point","coordinates":[-68.38333333,12.21666622]}},{"type":"Feature","properties":{"name":"GOVERNOR'S ISLAND","lng":-43.13333333,"lat":-22.85000038,"portId":12569},"geometry":{"type":"Point","coordinates":[-43.13333333,-22.85000038]}},{"type":"Feature","properties":{"name":"ANGRA DOS REIS","lng":-44.3130827,"lat":-23.0134833,"portId":19675},"geometry":{"type":"Point","coordinates":[-44.3130827,-23.0134833]}},{"type":"Feature","properties":{"name":"ARACAJU","lng":-37.03333333,"lat":-10.9333334,"portId":19690},"geometry":{"type":"Point","coordinates":[-37.03333333,-10.9333334]}},{"type":"Feature","properties":{"name":"BELEM","lng":-48.49925,"lat":-1.4411167,"portId":19735},"geometry":{"type":"Point","coordinates":[-48.49925,-1.4411167]}},{"type":"Feature","properties":{"name":"CABEDELO","lng":-34.8420167,"lat":-6.9762667,"portId":19747},"geometry":{"type":"Point","coordinates":[-34.8420167,-6.9762667]}},{"type":"Feature","properties":{"name":"SAO CRISTOVAO","lng":-43.13333333,"lat":-22.85000038,"portId":19794},"geometry":{"type":"Point","coordinates":[-43.13333333,-22.85000038]}},{"type":"Feature","properties":{"name":"MUCURIPE","lng":-38.47855,"lat":-3.7085833,"portId":19803},"geometry":{"type":"Point","coordinates":[-38.47855,-3.7085833]}},{"type":"Feature","properties":{"name":"SEPETIBA","lng":-43.83333333,"lat":-22.93333244,"portId":19822},"geometry":{"type":"Point","coordinates":[-43.83333333,-22.93333244]}},{"type":"Feature","properties":{"name":"MIRAMAR OIL TERMINAL","lng":-48.5,"lat":-1.399999976,"portId":19825},"geometry":{"type":"Point","coordinates":[-48.5,-1.399999976]}},{"type":"Feature","properties":{"name":"ILHEUS","lng":-39.03333333,"lat":-14.8000002,"portId":19878},"geometry":{"type":"Point","coordinates":[-39.03333333,-14.8000002]}},{"type":"Feature","properties":{"name":"ITAJAI","lng":-48.6646,"lat":-26.8991285,"portId":19926},"geometry":{"type":"Point","coordinates":[-48.6646,-26.8991285]}},{"type":"Feature","properties":{"name":"MACEIO","lng":-35.73333333,"lat":-9.683333396,"portId":19979},"geometry":{"type":"Point","coordinates":[-35.73333333,-9.683333396]}},{"type":"Feature","properties":{"name":"MANAUS","lng":-60.0,"lat":-3.133333444,"portId":20029},"geometry":{"type":"Point","coordinates":[-60.0,-3.133333444]}},{"type":"Feature","properties":{"name":"NATAL","lng":-35.2,"lat":-5.783333301,"portId":20043},"geometry":{"type":"Point","coordinates":[-35.2,-5.783333301]}},{"type":"Feature","properties":{"name":"PORTO ALEGRE","lng":-51.21666667,"lat":-30.04999924,"portId":20174},"geometry":{"type":"Point","coordinates":[-51.21666667,-30.04999924]}},{"type":"Feature","properties":{"name":"RECIFE","lng":-34.8672667,"lat":-8.0559833,"portId":20242},"geometry":{"type":"Point","coordinates":[-34.8672667,-8.0559833]}},{"type":"Feature","properties":{"name":"RIO DE JANEIRO","lng":-43.1973333,"lat":-22.88235,"portId":20284},"geometry":{"type":"Point","coordinates":[-43.1973333,-22.88235]}},{"type":"Feature","properties":{"name":"RIO GRANDE","lng":-52.06666667,"lat":-32.06666565,"portId":20301},"geometry":{"type":"Point","coordinates":[-52.06666667,-32.06666565]}},{"type":"Feature","properties":{"name":"SALVADOR","lng":-38.5184667,"lat":-12.9677167,"portId":20351},"geometry":{"type":"Point","coordinates":[-38.5184667,-12.9677167]}},{"type":"Feature","properties":{"name":"SAO FRANCISCO DO SUL","lng":-48.6395,"lat":-26.2344333,"portId":20429},"geometry":{"type":"Point","coordinates":[-48.6395,-26.2344333]}},{"type":"Feature","properties":{"name":"GUAIBA ISLAND TERMINAL","lng":-44.03333333,"lat":-23.01666641,"portId":20474},"geometry":{"type":"Point","coordinates":[-44.03333333,-23.01666641]}},{"type":"Feature","properties":{"name":"TRAMANDAI","lng":-50.0833333,"lat":-30.0166667,"portId":20524},"geometry":{"type":"Point","coordinates":[-50.0833333,-30.0166667]}},{"type":"Feature","properties":{"name":"TUBARAO","lng":-40.24995,"lat":-20.2912667,"portId":20533},"geometry":{"type":"Point","coordinates":[-40.24995,-20.2912667]}},{"type":"Feature","properties":{"name":"VITORIA","lng":-40.3324167,"lat":-20.3237,"portId":20604},"geometry":{"type":"Point","coordinates":[-40.3324167,-20.3237]}},{"type":"Feature","properties":{"name":"SAO LUIS","lng":-44.3,"lat":-2.5166667,"portId":21673},"geometry":{"type":"Point","coordinates":[-44.3,-2.5166667]}},{"type":"Feature","properties":{"name":"SANTA CLARA","lng":-51.36666667,"lat":-29.88333321,"portId":22652},"geometry":{"type":"Point","coordinates":[-51.36666667,-29.88333321]}},{"type":"Feature","properties":{"name":"ARATU","lng":-38.5,"lat":-12.78333378,"portId":22705},"geometry":{"type":"Point","coordinates":[-38.5,-12.78333378]}},{"type":"Feature","properties":{"name":"PONTA DA MADEIRA","lng":-44.38333333,"lat":-2.566666603,"portId":23304},"geometry":{"type":"Point","coordinates":[-44.38333333,-2.566666603]}},{"type":"Feature","properties":{"name":"COSIPA TERMINAL","lng":-46.3753667,"lat":-23.8739333,"portId":23931},"geometry":{"type":"Point","coordinates":[-46.3753667,-23.8739333]}},{"type":"Feature","properties":{"name":"TIPLAM TERMINAL","lng":-46.3723,"lat":-23.87295,"portId":23972},"geometry":{"type":"Point","coordinates":[-46.3723,-23.87295]}},{"type":"Feature","properties":{"name":"CUTRALE TERMINAL","lng":-46.2865833,"lat":-23.9801667,"portId":23999},"geometry":{"type":"Point","coordinates":[-46.2865833,-23.9801667]}},{"type":"Feature","properties":{"name":"CONCEICAOZINHA TERMINAL","lng":-46.2882167,"lat":-23.9743,"portId":24025},"geometry":{"type":"Point","coordinates":[-46.2882167,-23.9743]}},{"type":"Feature","properties":{"name":"ALEMOA TERMINAL","lng":-46.3633,"lat":-23.9183333,"portId":24063},"geometry":{"type":"Point","coordinates":[-46.3633,-23.9183333]}},{"type":"Feature","properties":{"name":"MADRE DE DEUS","lng":-38.6222333,"lat":-12.7495167,"portId":24064},"geometry":{"type":"Point","coordinates":[-38.6222333,-12.7495167]}},{"type":"Feature","properties":{"name":"BARNABE ISLAND TERMINAL","lng":-46.32985,"lat":-23.92525,"portId":24107},"geometry":{"type":"Point","coordinates":[-46.32985,-23.92525]}},{"type":"Feature","properties":{"name":"GUAMARE OIL TERMINAL","lng":-36.35,"lat":-4.866666793,"portId":24501},"geometry":{"type":"Point","coordinates":[-36.35,-4.866666793]}},{"type":"Feature","properties":{"name":"ADMIRAL BARROSO TERMINAL","lng":-45.3866667,"lat":-23.8083333,"portId":24786},"geometry":{"type":"Point","coordinates":[-45.3866667,-23.8083333]}},{"type":"Feature","properties":{"name":"SUAPE","lng":-34.95,"lat":-8.399999618,"portId":24825},"geometry":{"type":"Point","coordinates":[-34.95,-8.399999618]}},{"type":"Feature","properties":{"name":"GUANABARA BAY TERMINALS","lng":-43.1553833,"lat":-22.8136833,"portId":24856},"geometry":{"type":"Point","coordinates":[-43.1553833,-22.8136833]}},{"type":"Feature","properties":{"name":"SUAPE MARINE TERMINAL","lng":-34.95,"lat":-8.399999618,"portId":25273},"geometry":{"type":"Point","coordinates":[-34.95,-8.399999618]}},{"type":"Feature","properties":{"name":"FORTALEZA","lng":-38.47855,"lat":-3.7085833,"portId":27141},"geometry":{"type":"Point","coordinates":[-38.47855,-3.7085833]}},{"type":"Feature","properties":{"name":"PARANAGUA","lng":-48.5147,"lat":-25.5003,"portId":27188},"geometry":{"type":"Point","coordinates":[-48.5147,-25.5003]}},{"type":"Feature","properties":{"name":"SANTOS","lng":-46.3060667,"lat":-23.9927333,"portId":27248},"geometry":{"type":"Point","coordinates":[-46.3060667,-23.9927333]}},{"type":"Feature","properties":{"name":"ITAQUI","lng":-44.3813667,"lat":-2.56305,"portId":27275},"geometry":{"type":"Point","coordinates":[-44.3813667,-2.56305]}},{"type":"Feature","properties":{"name":"SAO SEBASTIAO","lng":-45.3959833,"lat":-23.80995,"portId":27326},"geometry":{"type":"Point","coordinates":[-45.3959833,-23.80995]}},{"type":"Feature","properties":{"name":"PONTA UBU","lng":-40.58333333,"lat":-20.78333282,"portId":27344},"geometry":{"type":"Point","coordinates":[-40.58333333,-20.78333282]}},{"type":"Feature","properties":{"name":"REGENCIA","lng":-39.83333333,"lat":-19.68333244,"portId":27709},"geometry":{"type":"Point","coordinates":[-39.83333333,-19.68333244]}},{"type":"Feature","properties":{"name":"MACAPA","lng":-51.1669167,"lat":-0.0626833,"portId":28583},"geometry":{"type":"Point","coordinates":[-51.1669167,-0.0626833]}},{"type":"Feature","properties":{"name":"MALHADO","lng":-39.03333333,"lat":-14.8000002,"portId":30123},"geometry":{"type":"Point","coordinates":[-39.03333333,-14.8000002]}},{"type":"Feature","properties":{"name":"BARCARENA","lng":-47.38333333,"lat":-0.483333319,"portId":273650},"geometry":{"type":"Point","coordinates":[-47.38333333,-0.483333319]}},{"type":"Feature","properties":{"name":"VILA DO CONDE","lng":-48.7575333,"lat":-1.5357333,"portId":281285},"geometry":{"type":"Point","coordinates":[-48.7575333,-1.5357333]}},{"type":"Feature","properties":{"name":"FPSO FLUMINENSE (BIJUPIRA, SALEMA)","lng":-40.41666667,"lat":-22.63333321,"portId":282643},"geometry":{"type":"Point","coordinates":[-40.41666667,-22.63333321]}},{"type":"Feature","properties":{"name":"TEMADRE","lng":-38.6166667,"lat":-12.7833333,"portId":370394},"geometry":{"type":"Point","coordinates":[-38.6166667,-12.7833333]}},{"type":"Feature","properties":{"name":"FPSO PETROBRAS 31 (ALBACORA FIELD)","lng":-39.96765,"lat":-22.13245,"portId":416480},"geometry":{"type":"Point","coordinates":[-39.96765,-22.13245]}},{"type":"Feature","properties":{"name":"MARLIM OIL FIELD","lng":-40.2043333,"lat":-22.34015,"portId":416538},"geometry":{"type":"Point","coordinates":[-40.2043333,-22.34015]}},{"type":"Feature","properties":{"name":"MARIMBA OIL FIELD","lng":-40.1016667,"lat":-22.3216667,"portId":416911},"geometry":{"type":"Point","coordinates":[-40.1016667,-22.3216667]}},{"type":"Feature","properties":{"name":"GUANABARA BAY LNG TERMINAL","lng":-43.1295,"lat":-22.7826667,"portId":418377},"geometry":{"type":"Point","coordinates":[-43.1295,-22.7826667]}},{"type":"Feature","properties":{"name":"FPSO ESPIRITO SANTO","lng":-39.7427,"lat":-21.2074333,"portId":420614},"geometry":{"type":"Point","coordinates":[-39.7427,-21.2074333]}},{"type":"Feature","properties":{"name":"FPSO PETROBRAS 63 (PAPA TERRA FIELD)","lng":-41.0639667,"lat":-23.5130833,"portId":445597},"geometry":{"type":"Point","coordinates":[-41.0639667,-23.5130833]}},{"type":"Feature","properties":{"name":"SERIA","lng":114.3261,"lat":4.7142833,"portId":20754},"geometry":{"type":"Point","coordinates":[114.3261,4.7142833]}},{"type":"Feature","properties":{"name":"BURGAS","lng":27.4759667,"lat":42.46705,"portId":20826},"geometry":{"type":"Point","coordinates":[27.4759667,42.46705]}},{"type":"Feature","properties":{"name":"VARNA","lng":27.9148,"lat":43.1901167,"portId":20847},"geometry":{"type":"Point","coordinates":[27.9148,43.1901167]}},{"type":"Feature","properties":{"name":"KOLE TERMINAL","lng":8.55,"lat":4.216666698,"portId":16527},"geometry":{"type":"Point","coordinates":[8.55,4.216666698]}},{"type":"Feature","properties":{"name":"DOUALA","lng":9.6824667,"lat":4.0496667,"portId":21100},"geometry":{"type":"Point","coordinates":[9.6824667,4.0496667]}},{"type":"Feature","properties":{"name":"BONABERI","lng":9.683333333,"lat":4.066666603,"portId":22864},"geometry":{"type":"Point","coordinates":[9.683333333,4.066666603]}},{"type":"Feature","properties":{"name":"MOUDI TERMINAL","lng":8.4866667,"lat":4.1166668,"portId":22899},"geometry":{"type":"Point","coordinates":[8.4866667,4.1166668]}},{"type":"Feature","properties":{"name":"LIMBOH TERMINAL","lng":9.1276667,"lat":4.00115,"portId":23538},"geometry":{"type":"Point","coordinates":[9.1276667,4.00115]}},{"type":"Feature","properties":{"name":"EBOME MARINE TERMINAL","lng":9.816666,"lat":2.799999952,"portId":218732},"geometry":{"type":"Point","coordinates":[9.816666,2.799999952]}},{"type":"Feature","properties":{"name":"FSO KOME KRIBI 1","lng":9.8,"lat":2.916666746,"portId":255212},"geometry":{"type":"Point","coordinates":[9.8,2.916666746]}},{"type":"Feature","properties":{"name":"BERRYPOINT","lng":-122.9730667,"lat":49.2913833,"portId":10919},"geometry":{"type":"Point","coordinates":[-122.9730667,49.2913833]}},{"type":"Feature","properties":{"name":"FAIRVIEW COVE","lng":-63.6289833,"lat":44.6681833,"portId":11374},"geometry":{"type":"Point","coordinates":[-63.6289833,44.6681833]}},{"type":"Feature","properties":{"name":"HUMBERMOUTH","lng":-57.95,"lat":48.95000076,"portId":14253},"geometry":{"type":"Point","coordinates":[-57.95,48.95000076]}},{"type":"Feature","properties":{"name":"FROBISHER","lng":-68.5208833,"lat":63.7284,"portId":15054},"geometry":{"type":"Point","coordinates":[-68.5208833,63.7284]}},{"type":"Feature","properties":{"name":"BAIE-COMEAU","lng":-68.1302167,"lat":49.2515333,"portId":21319},"geometry":{"type":"Point","coordinates":[-68.1302167,49.2515333]}},{"type":"Feature","properties":{"name":"BELLEDUNE","lng":-65.8391333,"lat":47.9119333,"portId":21401},"geometry":{"type":"Point","coordinates":[-65.8391333,47.9119333]}},{"type":"Feature","properties":{"name":"BOTWOOD","lng":-55.3361,"lat":49.1411667,"portId":21435},"geometry":{"type":"Point","coordinates":[-55.3361,49.1411667]}},{"type":"Feature","properties":{"name":"CHANDLER","lng":-64.6649667,"lat":48.3418167,"portId":21657},"geometry":{"type":"Point","coordinates":[-64.6649667,48.3418167]}},{"type":"Feature","properties":{"name":"CHURCHILL","lng":-94.19735,"lat":58.7750167,"portId":21809},"geometry":{"type":"Point","coordinates":[-94.19735,58.7750167]}},{"type":"Feature","properties":{"name":"COME BY CHANCE","lng":-54.01666667,"lat":47.79999924,"portId":21825},"geometry":{"type":"Point","coordinates":[-54.01666667,47.79999924]}},{"type":"Feature","properties":{"name":"CORNER BROOK","lng":-57.9509167,"lat":48.9605667,"portId":21886},"geometry":{"type":"Point","coordinates":[-57.9509167,48.9605667]}},{"type":"Feature","properties":{"name":"DALHOUSIE","lng":-66.36666667,"lat":48.06666565,"portId":22001},"geometry":{"type":"Point","coordinates":[-66.36666667,48.06666565]}},{"type":"Feature","properties":{"name":"HALIFAX","lng":-63.56666667,"lat":44.65000153,"portId":22226},"geometry":{"type":"Point","coordinates":[-63.56666667,44.65000153]}},{"type":"Feature","properties":{"name":"HAMILTON","lng":-79.83333333,"lat":43.28333282,"portId":22304},"geometry":{"type":"Point","coordinates":[-79.83333333,43.28333282]}},{"type":"Feature","properties":{"name":"POINTE NOIRE","lng":-66.48155,"lat":50.1680333,"portId":22493},"geometry":{"type":"Point","coordinates":[-66.48155,50.1680333]}},{"type":"Feature","properties":{"name":"HOLYROOD","lng":-53.11666667,"lat":47.38333511,"portId":22500},"geometry":{"type":"Point","coordinates":[-53.11666667,47.38333511]}},{"type":"Feature","properties":{"name":"KITIMAT","lng":-128.6833333,"lat":53.98333359,"portId":22582},"geometry":{"type":"Point","coordinates":[-128.6833333,53.98333359]}},{"type":"Feature","properties":{"name":"ST ROMUALD TERMINAL","lng":-71.21666667,"lat":46.78333282,"portId":22622},"geometry":{"type":"Point","coordinates":[-71.21666667,46.78333282]}},{"type":"Feature","properties":{"name":"POINTE AUX BASQUES","lng":-66.36666667,"lat":50.18333435,"portId":22757},"geometry":{"type":"Point","coordinates":[-66.36666667,50.18333435]}},{"type":"Feature","properties":{"name":"MATANE","lng":-67.55696772,"lat":48.82063675,"portId":22760},"geometry":{"type":"Point","coordinates":[-67.55696772,48.82063675]}},{"type":"Feature","properties":{"name":"MONTREAL","lng":-73.5329,"lat":45.4940667,"portId":22940},"geometry":{"type":"Point","coordinates":[-73.5329,45.4940667]}},{"type":"Feature","properties":{"name":"NANAIMO","lng":-123.9247167,"lat":49.1651833,"portId":23233},"geometry":{"type":"Point","coordinates":[-123.9247167,49.1651833]}},{"type":"Feature","properties":{"name":"COMEAU BAY","lng":-68.1302167,"lat":49.2515333,"portId":23414},"geometry":{"type":"Point","coordinates":[-68.1302167,49.2515333]}},{"type":"Feature","properties":{"name":"PORT ALFRED","lng":-70.86666667,"lat":48.33333206,"portId":23709},"geometry":{"type":"Point","coordinates":[-70.86666667,48.33333206]}},{"type":"Feature","properties":{"name":"PORT ALICE","lng":-127.4896333,"lat":50.4003667,"portId":23746},"geometry":{"type":"Point","coordinates":[-127.4896333,50.4003667]}},{"type":"Feature","properties":{"name":"PORT CARTIER","lng":-66.78333333,"lat":50.03333282,"portId":23758},"geometry":{"type":"Point","coordinates":[-66.78333333,50.03333282]}},{"type":"Feature","properties":{"name":"PORT HAWKESBURY","lng":-61.36666667,"lat":45.61666489,"portId":23861},"geometry":{"type":"Point","coordinates":[-61.36666667,45.61666489]}},{"type":"Feature","properties":{"name":"POWELL RIVER","lng":-124.55,"lat":49.86666489,"portId":23925},"geometry":{"type":"Point","coordinates":[-124.55,49.86666489]}},{"type":"Feature","properties":{"name":"QUEBEC","lng":-71.2,"lat":46.81666565,"portId":24085},"geometry":{"type":"Point","coordinates":[-71.2,46.81666565]}},{"type":"Feature","properties":{"name":"CANAPORT","lng":-65.9810667,"lat":45.2042,"portId":24152},"geometry":{"type":"Point","coordinates":[-65.9810667,45.2042]}},{"type":"Feature","properties":{"name":"POINT TUPPER","lng":-61.36666667,"lat":45.61666489,"portId":24220},"geometry":{"type":"Point","coordinates":[-61.36666667,45.61666489]}},{"type":"Feature","properties":{"name":"SEVEN ISLANDS","lng":-66.3890167,"lat":50.1898833,"portId":24229},"geometry":{"type":"Point","coordinates":[-66.3890167,50.1898833]}},{"type":"Feature","properties":{"name":"PORT HARMON","lng":-58.51666667,"lat":48.51666641,"portId":24230},"geometry":{"type":"Point","coordinates":[-58.51666667,48.51666641]}},{"type":"Feature","properties":{"name":"SAINT JOHN","lng":-66.0516333,"lat":45.25755,"portId":24396},"geometry":{"type":"Point","coordinates":[-66.0516333,45.25755]}},{"type":"Feature","properties":{"name":"ST JOHN'S","lng":-52.7,"lat":47.56666565,"portId":24433},"geometry":{"type":"Point","coordinates":[-52.7,47.56666565]}},{"type":"Feature","properties":{"name":"SOREL","lng":-73.1146333,"lat":46.0486667,"portId":24761},"geometry":{"type":"Point","coordinates":[-73.1146333,46.0486667]}},{"type":"Feature","properties":{"name":"STEPHENVILLE","lng":-58.51666667,"lat":48.51666641,"portId":24884},"geometry":{"type":"Point","coordinates":[-58.51666667,48.51666641]}},{"type":"Feature","properties":{"name":"TORONTO","lng":-79.38333333,"lat":43.63333511,"portId":25154},"geometry":{"type":"Point","coordinates":[-79.38333333,43.63333511]}},{"type":"Feature","properties":{"name":"VANCOUVER","lng":-123.0831,"lat":49.2891833,"portId":25350},"geometry":{"type":"Point","coordinates":[-123.0831,49.2891833]}},{"type":"Feature","properties":{"name":"SEPT-ILES","lng":-66.3890167,"lat":50.1898833,"portId":26784},"geometry":{"type":"Point","coordinates":[-66.3890167,50.1898833]}},{"type":"Feature","properties":{"name":"ROBERTS BANK","lng":-123.1736833,"lat":49.01205,"portId":27775},"geometry":{"type":"Point","coordinates":[-123.1736833,49.01205]}},{"type":"Feature","properties":{"name":"TROIS-RIVIERES","lng":-72.5392167,"lat":46.33605,"portId":27850},"geometry":{"type":"Point","coordinates":[-72.5392167,46.33605]}},{"type":"Feature","properties":{"name":"CROFTON","lng":-123.6333333,"lat":48.86666489,"portId":28202},"geometry":{"type":"Point","coordinates":[-123.6333333,48.86666489]}},{"type":"Feature","properties":{"name":"GOLD RIVER","lng":-126.1166667,"lat":49.68333435,"portId":28321},"geometry":{"type":"Point","coordinates":[-126.1166667,49.68333435]}},{"type":"Feature","properties":{"name":"DUKE POINT","lng":-123.95,"lat":49.16666794,"portId":29402},"geometry":{"type":"Point","coordinates":[-123.95,49.16666794]}},{"type":"Feature","properties":{"name":"SARNIA","lng":-82.39735941,"lat":42.97512054,"portId":213632},"geometry":{"type":"Point","coordinates":[-82.39735941,42.97512054]}},{"type":"Feature","properties":{"name":"BURLINGTON BAY","lng":-79.83333333,"lat":43.28333282,"portId":216375},"geometry":{"type":"Point","coordinates":[-79.83333333,43.28333282]}},{"type":"Feature","properties":{"name":"CHARLOTTETOWN","lng":-63.11666667,"lat":46.23333359,"portId":219990},"geometry":{"type":"Point","coordinates":[-63.11666667,46.23333359]}},{"type":"Feature","properties":{"name":"IQALUIT","lng":-68.5208833,"lat":63.7284,"portId":219991},"geometry":{"type":"Point","coordinates":[-68.5208833,63.7284]}},{"type":"Feature","properties":{"name":"NORTH SYDNEY","lng":-60.21666667,"lat":46.26666641,"portId":219992},"geometry":{"type":"Point","coordinates":[-60.21666667,46.26666641]}},{"type":"Feature","properties":{"name":"SHELBURNE","lng":-65.31666667,"lat":43.75,"portId":219999},"geometry":{"type":"Point","coordinates":[-65.31666667,43.75]}},{"type":"Feature","properties":{"name":"GOOSE BAY","lng":-60.36666667,"lat":53.36666489,"portId":220001},"geometry":{"type":"Point","coordinates":[-60.36666667,53.36666489]}},{"type":"Feature","properties":{"name":"KINGSTON","lng":-76.5,"lat":44.20000076,"portId":220021},"geometry":{"type":"Point","coordinates":[-76.5,44.20000076]}},{"type":"Feature","properties":{"name":"COUNTRY HARBOUR","lng":-61.68333333,"lat":45.13333511,"portId":220027},"geometry":{"type":"Point","coordinates":[-61.68333333,45.13333511]}},{"type":"Feature","properties":{"name":"WHIFFEN HEAD","lng":-54.01666667,"lat":47.79999924,"portId":221410},"geometry":{"type":"Point","coordinates":[-54.01666667,47.79999924]}},{"type":"Feature","properties":{"name":"LEWISPORTE","lng":-55.0442333,"lat":49.2470333,"portId":221417},"geometry":{"type":"Point","coordinates":[-55.0442333,49.2470333]}},{"type":"Feature","properties":{"name":"PORT MOODY","lng":-122.8646333,"lat":49.2889167,"portId":259279},"geometry":{"type":"Point","coordinates":[-122.8646333,49.2889167]}},{"type":"Feature","properties":{"name":"DARTMOUTH","lng":-63.56666667,"lat":44.66666794,"portId":259345},"geometry":{"type":"Point","coordinates":[-63.56666667,44.66666794]}},{"type":"Feature","properties":{"name":"DELTA","lng":-123.0332667,"lat":49.1456333,"portId":450882},"geometry":{"type":"Point","coordinates":[-123.0332667,49.1456333]}},{"type":"Feature","properties":{"name":"PUERTO CABALLO OIL TERMINAL","lng":-16.26666667,"lat":28.45000076,"portId":13765},"geometry":{"type":"Point","coordinates":[-16.26666667,28.45000076]}},{"type":"Feature","properties":{"name":"PUERTO DE LA HONDURA OIL TERMINAL","lng":-16.23333333,"lat":28.45000076,"portId":14011},"geometry":{"type":"Point","coordinates":[-16.23333333,28.45000076]}},{"type":"Feature","properties":{"name":"PUERTO DE LA LUZ Y LAS PALMAS","lng":-15.41235,"lat":28.1204167,"portId":23426},"geometry":{"type":"Point","coordinates":[-15.41235,28.1204167]}},{"type":"Feature","properties":{"name":"SANTA CRUZ DE TENERIFE","lng":-16.23333333,"lat":28.45000076,"portId":26106},"geometry":{"type":"Point","coordinates":[-16.23333333,28.45000076]}},{"type":"Feature","properties":{"name":"LAS PALMAS","lng":-15.41235,"lat":28.1204167,"portId":208891},"geometry":{"type":"Point","coordinates":[-15.41235,28.1204167]}},{"type":"Feature","properties":{"name":"SAL ISLAND","lng":-23.0,"lat":16.66666603,"portId":17076},"geometry":{"type":"Point","coordinates":[-23.0,16.66666603]}},{"type":"Feature","properties":{"name":"PALMEIRA BAY","lng":-22.95,"lat":16.78333282,"portId":21722},"geometry":{"type":"Point","coordinates":[-22.95,16.78333282]}},{"type":"Feature","properties":{"name":"SANTA MARIA BAY","lng":-22.9057667,"lat":16.5955167,"portId":21761},"geometry":{"type":"Point","coordinates":[-22.9057667,16.5955167]}},{"type":"Feature","properties":{"name":"GEORGETOWN","lng":-81.38333333,"lat":19.29999924,"portId":25065},"geometry":{"type":"Point","coordinates":[-81.38333333,19.29999924]}},{"type":"Feature","properties":{"name":"GUACOLDA","lng":-71.28333333,"lat":-28.46666718,"portId":12674},"geometry":{"type":"Point","coordinates":[-71.28333333,-28.46666718]}},{"type":"Feature","properties":{"name":"LAS LOSAS","lng":-71.2424,"lat":-28.4677333,"portId":12754},"geometry":{"type":"Point","coordinates":[-71.2424,-28.4677333]}},{"type":"Feature","properties":{"name":"CALETA CLARENCIA","lng":-70.15,"lat":-52.90000153,"portId":24722},"geometry":{"type":"Point","coordinates":[-70.15,-52.90000153]}},{"type":"Feature","properties":{"name":"GREGORIO","lng":-70.18333333,"lat":-52.63333511,"portId":24742},"geometry":{"type":"Point","coordinates":[-70.18333333,-52.63333511]}},{"type":"Feature","properties":{"name":"ANTOFAGASTA","lng":-70.4062167,"lat":-23.65045,"portId":26371},"geometry":{"type":"Point","coordinates":[-70.4062167,-23.65045]}},{"type":"Feature","properties":{"name":"ARICA","lng":-70.3257333,"lat":-18.4689667,"portId":26554},"geometry":{"type":"Point","coordinates":[-70.3257333,-18.4689667]}},{"type":"Feature","properties":{"name":"CALDERA","lng":-70.88333333,"lat":-27.04999924,"portId":26703},"geometry":{"type":"Point","coordinates":[-70.88333333,-27.04999924]}},{"type":"Feature","properties":{"name":"CHANARAL","lng":-70.63455,"lat":-26.35035,"portId":26731},"geometry":{"type":"Point","coordinates":[-70.63455,-26.35035]}},{"type":"Feature","properties":{"name":"COQUIMBO","lng":-71.35,"lat":-29.95000076,"portId":26869},"geometry":{"type":"Point","coordinates":[-71.35,-29.95000076]}},{"type":"Feature","properties":{"name":"CORONEL","lng":-73.1637333,"lat":-37.03705,"portId":26875},"geometry":{"type":"Point","coordinates":[-73.1637333,-37.03705]}},{"type":"Feature","properties":{"name":"HUASCO","lng":-71.24985,"lat":-28.46615,"portId":27043},"geometry":{"type":"Point","coordinates":[-71.24985,-28.46615]}},{"type":"Feature","properties":{"name":"MEJILLONES","lng":-70.43,"lat":-23.0880006,"portId":27334},"geometry":{"type":"Point","coordinates":[-70.43,-23.0880006]}},{"type":"Feature","properties":{"name":"PUERTO MONTT","lng":-72.9581333,"lat":-41.4853,"portId":27424},"geometry":{"type":"Point","coordinates":[-72.9581333,-41.4853]}},{"type":"Feature","properties":{"name":"QUINTERO","lng":-71.5034667,"lat":-32.7637167,"portId":27708},"geometry":{"type":"Point","coordinates":[-71.5034667,-32.7637167]}},{"type":"Feature","properties":{"name":"SAN VICENTE","lng":-73.15,"lat":-36.73333359,"portId":27792},"geometry":{"type":"Point","coordinates":[-73.15,-36.73333359]}},{"type":"Feature","properties":{"name":"TALCAHUANO","lng":-73.1,"lat":-36.68333435,"portId":27863},"geometry":{"type":"Point","coordinates":[-73.1,-36.68333435]}},{"type":"Feature","properties":{"name":"TOCOPILLA","lng":-70.21105,"lat":-22.0904167,"portId":27912},"geometry":{"type":"Point","coordinates":[-70.21105,-22.0904167]}},{"type":"Feature","properties":{"name":"VALPARAISO","lng":-71.6227333,"lat":-33.0333833,"portId":28082},"geometry":{"type":"Point","coordinates":[-71.6227333,-33.0333833]}},{"type":"Feature","properties":{"name":"CALBUCO","lng":-73.195,"lat":-41.7906669,"portId":28103},"geometry":{"type":"Point","coordinates":[-73.195,-41.7906669]}},{"type":"Feature","properties":{"name":"BARQUITO","lng":-70.6460833,"lat":-26.3564833,"portId":29277},"geometry":{"type":"Point","coordinates":[-70.6460833,-26.3564833]}},{"type":"Feature","properties":{"name":"IQUIQUE","lng":-70.15725,"lat":-20.2023167,"portId":29386},"geometry":{"type":"Point","coordinates":[-70.15725,-20.2023167]}},{"type":"Feature","properties":{"name":"PUERTO VENTANAS","lng":-71.4980667,"lat":-32.7532333,"portId":29931},"geometry":{"type":"Point","coordinates":[-71.4980667,-32.7532333]}},{"type":"Feature","properties":{"name":"DAGANG","lng":121.65,"lat":38.9500013,"portId":11033},"geometry":{"type":"Point","coordinates":[121.65,38.9500013]}},{"type":"Feature","properties":{"name":"XIANGLUJIAO","lng":121.6166667,"lat":38.9500013,"portId":11069},"geometry":{"type":"Point","coordinates":[121.6166667,38.9500013]}},{"type":"Feature","properties":{"name":"GANJINGZI","lng":121.6333333,"lat":38.9666679,"portId":11128},"geometry":{"type":"Point","coordinates":[121.6333333,38.9666679]}},{"type":"Feature","properties":{"name":"SIERGOU","lng":121.6833333,"lat":38.9333346,"portId":11175},"geometry":{"type":"Point","coordinates":[121.6833333,38.9333346]}},{"type":"Feature","properties":{"name":"NIANYUWAN","lng":121.9,"lat":38.9833346,"portId":11212},"geometry":{"type":"Point","coordinates":[121.9,38.9833346]}},{"type":"Feature","properties":{"name":"HEIZUIZI","lng":121.6166667,"lat":38.9333346,"portId":11276},"geometry":{"type":"Point","coordinates":[121.6166667,38.9333346]}},{"type":"Feature","properties":{"name":"HESHANGDAO","lng":121.75,"lat":39.0166679,"portId":11316},"geometry":{"type":"Point","coordinates":[121.75,39.0166679]}},{"type":"Feature","properties":{"name":"DAYAO BAY","lng":121.8666667,"lat":39.0166679,"portId":11387},"geometry":{"type":"Point","coordinates":[121.8666667,39.0166679]}},{"type":"Feature","properties":{"name":"SHUI DONG","lng":111.07635,"lat":21.4780667,"portId":11522},"geometry":{"type":"Point","coordinates":[111.07635,21.4780667]}},{"type":"Feature","properties":{"name":"DONGDU","lng":118.0333333,"lat":24.48333359,"portId":11540},"geometry":{"type":"Point","coordinates":[118.0333333,24.48333359]}},{"type":"Feature","properties":{"name":"AOSHAN OIL TERMINAL","lng":122.1424333,"lat":29.9454333,"portId":11633},"geometry":{"type":"Point","coordinates":[122.1424333,29.9454333]}},{"type":"Feature","properties":{"name":"LANGSHAN","lng":120.8166667,"lat":32.0,"portId":11663},"geometry":{"type":"Point","coordinates":[120.8166667,32.0]}},{"type":"Feature","properties":{"name":"HUIZHOU","lng":114.6586,"lat":22.6511667,"portId":11765},"geometry":{"type":"Point","coordinates":[114.6586,22.6511667]}},{"type":"Feature","properties":{"name":"JINZHOU","lng":121.0623833,"lat":40.7924333,"portId":11856},"geometry":{"type":"Point","coordinates":[121.0623833,40.7924333]}},{"type":"Feature","properties":{"name":"YANGPU","lng":109.2064167,"lat":19.7247333,"portId":11918},"geometry":{"type":"Point","coordinates":[109.2064167,19.7247333]}},{"type":"Feature","properties":{"name":"SHEKOU","lng":113.8992,"lat":22.4644167,"portId":11927},"geometry":{"type":"Point","coordinates":[113.8992,22.4644167]}},{"type":"Feature","properties":{"name":"ZHAPU","lng":121.0833333,"lat":30.58333397,"portId":11935},"geometry":{"type":"Point","coordinates":[121.0833333,30.58333397]}},{"type":"Feature","properties":{"name":"XIJIANG MARINE TERMINAL","lng":114.95,"lat":21.29999924,"portId":12609},"geometry":{"type":"Point","coordinates":[114.95,21.29999924]}},{"type":"Feature","properties":{"name":"MEIZHOU","lng":118.95965,"lat":25.2107667,"portId":12839},"geometry":{"type":"Point","coordinates":[118.95965,25.2107667]}},{"type":"Feature","properties":{"name":"MAOMING","lng":111.0833333,"lat":21.48333359,"portId":12917},"geometry":{"type":"Point","coordinates":[111.0833333,21.48333359]}},{"type":"Feature","properties":{"name":"WEIZHOU MARINE TERMINAL","lng":108.6166667,"lat":20.83333397,"portId":14696},"geometry":{"type":"Point","coordinates":[108.6166667,20.83333397]}},{"type":"Feature","properties":{"name":"XINSHENGWEI","lng":118.8599333,"lat":32.1726167,"portId":14909},"geometry":{"type":"Point","coordinates":[118.8599333,32.1726167]}},{"type":"Feature","properties":{"name":"XIAMEN","lng":118.0478333,"lat":24.4429333,"portId":17500},"geometry":{"type":"Point","coordinates":[118.0478333,24.4429333]}},{"type":"Feature","properties":{"name":"BAOSHAN","lng":121.4833333,"lat":31.41666603,"portId":23033},"geometry":{"type":"Point","coordinates":[121.4833333,31.41666603]}},{"type":"Feature","properties":{"name":"BEILUN","lng":121.8778829,"lat":29.90118408,"portId":23059},"geometry":{"type":"Point","coordinates":[121.8778829,29.90118408]}},{"type":"Feature","properties":{"name":"ZHENHAI","lng":121.7506,"lat":29.9814,"portId":23112},"geometry":{"type":"Point","coordinates":[121.7506,29.9814]}},{"type":"Feature","properties":{"name":"ZHOUSHAN","lng":122.0995167,"lat":30.0074833,"portId":23224},"geometry":{"type":"Point","coordinates":[122.0995167,30.0074833]}},{"type":"Feature","properties":{"name":"BEIGANG","lng":120.3166667,"lat":36.11666489,"portId":24175},"geometry":{"type":"Point","coordinates":[120.3166667,36.11666489]}},{"type":"Feature","properties":{"name":"DAGANG","lng":120.3166667,"lat":36.09999847,"portId":24224},"geometry":{"type":"Point","coordinates":[120.3166667,36.09999847]}},{"type":"Feature","properties":{"name":"ZHONGGANG","lng":120.2833333,"lat":36.08333206,"portId":24263},"geometry":{"type":"Point","coordinates":[120.2833333,36.08333206]}},{"type":"Feature","properties":{"name":"HUANGDAO","lng":120.2231,"lat":36.0706667,"portId":24361},"geometry":{"type":"Point","coordinates":[120.2231,36.0706667]}},{"type":"Feature","properties":{"name":"QIANWAN","lng":120.25,"lat":36.03333282,"portId":24382},"geometry":{"type":"Point","coordinates":[120.25,36.03333282]}},{"type":"Feature","properties":{"name":"CHIWAN","lng":113.8811167,"lat":22.475,"portId":24955},"geometry":{"type":"Point","coordinates":[113.8811167,22.475]}},{"type":"Feature","properties":{"name":"JINSHAN","lng":121.2833333,"lat":30.6833333,"portId":25060},"geometry":{"type":"Point","coordinates":[121.2833333,30.6833333]}},{"type":"Feature","properties":{"name":"CHINWANGTAO","lng":119.6356609,"lat":39.9130228,"portId":25069},"geometry":{"type":"Point","coordinates":[119.6356609,39.9130228]}},{"type":"Feature","properties":{"name":"BZ 28 TERMINAL","lng":119.6333333,"lat":38.31666565,"portId":25174},"geometry":{"type":"Point","coordinates":[119.6333333,38.31666565]}},{"type":"Feature","properties":{"name":"BZ 34 TERMINAL","lng":119.55495,"lat":38.2265333,"portId":25181},"geometry":{"type":"Point","coordinates":[119.55495,38.2265333]}},{"type":"Feature","properties":{"name":"LONGKOU","lng":120.3088167,"lat":37.65375,"portId":25194},"geometry":{"type":"Point","coordinates":[120.3088167,37.65375]}},{"type":"Feature","properties":{"name":"FPSO NAN HAI SHENG LI","lng":115.6822,"lat":20.8419,"portId":25247},"geometry":{"type":"Point","coordinates":[115.6822,20.8419]}},{"type":"Feature","properties":{"name":"NINGBO","lng":121.7322167,"lat":29.9683833,"portId":25261},"geometry":{"type":"Point","coordinates":[121.7322167,29.9683833]}},{"type":"Feature","properties":{"name":"QUANZHOU","lng":118.6836833,"lat":24.8823332,"portId":25299},"geometry":{"type":"Point","coordinates":[118.6836833,24.8823332]}},{"type":"Feature","properties":{"name":"RIZHAO","lng":119.5415336,"lat":35.3615699,"portId":25304},"geometry":{"type":"Point","coordinates":[119.5415336,35.3615699]}},{"type":"Feature","properties":{"name":"WEI HAI","lng":122.1956833,"lat":37.4586,"portId":25397},"geometry":{"type":"Point","coordinates":[122.1956833,37.4586]}},{"type":"Feature","properties":{"name":"ZHENJIANG","lng":119.3674,"lat":32.2038167,"portId":26169},"geometry":{"type":"Point","coordinates":[119.3674,32.2038167]}},{"type":"Feature","properties":{"name":"YINGKOU","lng":122.155,"lat":40.706,"portId":26345},"geometry":{"type":"Point","coordinates":[122.155,40.706]}},{"type":"Feature","properties":{"name":"ZHONGSHAN","lng":113.4892,"lat":22.5748833,"portId":26527},"geometry":{"type":"Point","coordinates":[113.4892,22.5748833]}},{"type":"Feature","properties":{"name":"DALIAN","lng":121.7182333,"lat":38.9783,"portId":27311},"geometry":{"type":"Point","coordinates":[121.7182333,38.9783]}},{"type":"Feature","properties":{"name":"FUZHOU","lng":119.37985,"lat":25.9681167,"portId":27400},"geometry":{"type":"Point","coordinates":[119.37985,25.9681167]}},{"type":"Feature","properties":{"name":"JIANGYIN","lng":120.2666667,"lat":31.89999962,"portId":27752},"geometry":{"type":"Point","coordinates":[120.2666667,31.89999962]}},{"type":"Feature","properties":{"name":"QINGDAO","lng":120.2683333,"lat":36.0611649,"portId":27800},"geometry":{"type":"Point","coordinates":[120.2683333,36.0611649]}},{"type":"Feature","properties":{"name":"QINHUANGDAO","lng":119.6356609,"lat":39.9130228,"portId":27838},"geometry":{"type":"Point","coordinates":[119.6356609,39.9130228]}},{"type":"Feature","properties":{"name":"YANTIAN","lng":114.2635167,"lat":22.5669667,"portId":27858},"geometry":{"type":"Point","coordinates":[114.2635167,22.5669667]}},{"type":"Feature","properties":{"name":"SHANGHAI","lng":121.5841333,"lat":31.3797833,"portId":27999},"geometry":{"type":"Point","coordinates":[121.5841333,31.3797833]}},{"type":"Feature","properties":{"name":"NANJING","lng":118.7604667,"lat":32.1284833,"portId":28471},"geometry":{"type":"Point","coordinates":[118.7604667,32.1284833]}},{"type":"Feature","properties":{"name":"NANTONG","lng":120.8175,"lat":32.00315,"portId":28514},"geometry":{"type":"Point","coordinates":[120.8175,32.00315]}},{"type":"Feature","properties":{"name":"YANTAI","lng":121.4041833,"lat":37.5686667,"portId":28684},"geometry":{"type":"Point","coordinates":[121.4041833,37.5686667]}},{"type":"Feature","properties":{"name":"ZHANJIANG","lng":110.415,"lat":21.18333244,"portId":28775},"geometry":{"type":"Point","coordinates":[110.415,21.18333244]}},{"type":"Feature","properties":{"name":"JIUCAIGANG","lng":120.2666667,"lat":31.89999962,"portId":212128},"geometry":{"type":"Point","coordinates":[120.2666667,31.89999962]}},{"type":"Feature","properties":{"name":"HUANGTIANGANG","lng":120.2666667,"lat":31.89999962,"portId":212129},"geometry":{"type":"Point","coordinates":[120.2666667,31.89999962]}},{"type":"Feature","properties":{"name":"XIAGANG","lng":120.2666667,"lat":31.89999962,"portId":212130},"geometry":{"type":"Point","coordinates":[120.2666667,31.89999962]}},{"type":"Feature","properties":{"name":"LIGANG","lng":120.2666667,"lat":31.89999962,"portId":212131},"geometry":{"type":"Point","coordinates":[120.2666667,31.89999962]}},{"type":"Feature","properties":{"name":"AMOY","lng":118.0333333,"lat":24.45000076,"portId":213326},"geometry":{"type":"Point","coordinates":[118.0333333,24.45000076]}},{"type":"Feature","properties":{"name":"CHEFOO","lng":121.3935308,"lat":37.48278427,"portId":213335},"geometry":{"type":"Point","coordinates":[121.3935308,37.48278427]}},{"type":"Feature","properties":{"name":"CHINKIANG","lng":119.4438667,"lat":32.2212,"portId":213336},"geometry":{"type":"Point","coordinates":[119.4438667,32.2212]}},{"type":"Feature","properties":{"name":"DAIREN","lng":121.7182333,"lat":38.9783,"portId":213347},"geometry":{"type":"Point","coordinates":[121.7182333,38.9783]}},{"type":"Feature","properties":{"name":"FOOCHOW","lng":119.3,"lat":26.04999924,"portId":213348},"geometry":{"type":"Point","coordinates":[119.3,26.04999924]}},{"type":"Feature","properties":{"name":"TSAMKONG","lng":110.415,"lat":21.18333244,"portId":213357},"geometry":{"type":"Point","coordinates":[110.415,21.18333244]}},{"type":"Feature","properties":{"name":"TSINGTAO","lng":120.2683333,"lat":36.0611649,"portId":213358},"geometry":{"type":"Point","coordinates":[120.2683333,36.0611649]}},{"type":"Feature","properties":{"name":"GAOQIAO","lng":121.7,"lat":31.20000076,"portId":213774},"geometry":{"type":"Point","coordinates":[121.7,31.20000076]}},{"type":"Feature","properties":{"name":"HUANGPU","lng":113.4166667,"lat":23.08333397,"portId":214157},"geometry":{"type":"Point","coordinates":[113.4166667,23.08333397]}},{"type":"Feature","properties":{"name":"LUFENG TERMINAL","lng":116.05,"lat":21.63333321,"portId":227624},"geometry":{"type":"Point","coordinates":[116.05,21.63333321]}},{"type":"Feature","properties":{"name":"QINZHOU","lng":108.5999997,"lat":21.7000003,"portId":246050},"geometry":{"type":"Point","coordinates":[108.5999997,21.7000003]}},{"type":"Feature","properties":{"name":"SHENZHEN","lng":114.3911333,"lat":22.6048833,"portId":278265},"geometry":{"type":"Point","coordinates":[114.3911333,22.6048833]}},{"type":"Feature","properties":{"name":"CHENSHAN","lng":121.2833333,"lat":30.6833333,"portId":327391},"geometry":{"type":"Point","coordinates":[121.2833333,30.6833333]}},{"type":"Feature","properties":{"name":"CAOFEIDIAN","lng":118.5166667,"lat":38.9,"portId":327957},"geometry":{"type":"Point","coordinates":[118.5166667,38.9]}},{"type":"Feature","properties":{"name":"FPSO BOHAI PENG LAI","lng":120.0833333,"lat":38.3666667,"portId":334393},"geometry":{"type":"Point","coordinates":[120.0833333,38.3666667]}},{"type":"Feature","properties":{"name":"CFD 11 TERMINAL","lng":118.7,"lat":38.7666667,"portId":337470},"geometry":{"type":"Point","coordinates":[118.7,38.7666667]}},{"type":"Feature","properties":{"name":"PANYU OIL TERMINAL","lng":114.7,"lat":20.85,"portId":337472},"geometry":{"type":"Point","coordinates":[114.7,20.85]}},{"type":"Feature","properties":{"name":"QINGLANSHAN OIL TERMINAL","lng":119.0211333,"lat":25.0588167,"portId":384977},"geometry":{"type":"Point","coordinates":[119.0211333,25.0588167]}},{"type":"Feature","properties":{"name":"KEELUNG","lng":121.7566667,"lat":25.1516667,"portId":13365},"geometry":{"type":"Point","coordinates":[121.7566667,25.1516667]}},{"type":"Feature","properties":{"name":"TA-LIN-PU OFFSHORE OIL TERMINAL","lng":120.2909333,"lat":22.4851,"portId":14708},"geometry":{"type":"Point","coordinates":[120.2909333,22.4851]}},{"type":"Feature","properties":{"name":"YUN-AN LNG TERMINAL","lng":120.1983333,"lat":22.8100009,"portId":14758},"geometry":{"type":"Point","coordinates":[120.1983333,22.8100009]}},{"type":"Feature","properties":{"name":"SHA LUNG OIL TERMINAL","lng":121.2313911,"lat":25.08314133,"portId":18895},"geometry":{"type":"Point","coordinates":[121.2313911,25.08314133]}},{"type":"Feature","properties":{"name":"KAOHSIUNG","lng":120.3087333,"lat":22.5520001,"portId":22021},"geometry":{"type":"Point","coordinates":[120.3087333,22.5520001]}},{"type":"Feature","properties":{"name":"SU-AO","lng":121.85,"lat":24.58333397,"portId":22059},"geometry":{"type":"Point","coordinates":[121.85,24.58333397]}},{"type":"Feature","properties":{"name":"TAICHUNG","lng":120.5159,"lat":24.2825667,"portId":22112},"geometry":{"type":"Point","coordinates":[120.5159,24.2825667]}},{"type":"Feature","properties":{"name":"TAN-SHUI","lng":121.3764334,"lat":25.1522667,"portId":24443},"geometry":{"type":"Point","coordinates":[121.3764334,25.1522667]}},{"type":"Feature","properties":{"name":"MAILIAO","lng":120.1666667,"lat":23.7833333,"portId":219888},"geometry":{"type":"Point","coordinates":[120.1666667,23.7833333]}},{"type":"Feature","properties":{"name":"SHEN-AO","lng":121.8166667,"lat":25.13333321,"portId":256974},"geometry":{"type":"Point","coordinates":[121.8166667,25.13333321]}},{"type":"Feature","properties":{"name":"CHRISTMAS ISLAND","lng":105.6563333,"lat":-10.4113667,"portId":25547},"geometry":{"type":"Point","coordinates":[105.6563333,-10.4113667]}},{"type":"Feature","properties":{"name":"PINDO","lng":-78.84999847,"lat":1.783333301,"portId":24416},"geometry":{"type":"Point","coordinates":[-78.84999847,1.783333301]}},{"type":"Feature","properties":{"name":"BARRANQUILLA","lng":-74.9696667,"lat":10.9949955,"portId":28207},"geometry":{"type":"Point","coordinates":[-74.9696667,10.9949955]}},{"type":"Feature","properties":{"name":"BUENAVENTURA","lng":-77.08333333,"lat":3.883333444,"portId":28261},"geometry":{"type":"Point","coordinates":[-77.08333333,3.883333444]}},{"type":"Feature","properties":{"name":"CARTAGENA","lng":-75.5359667,"lat":10.39895,"portId":28313},"geometry":{"type":"Point","coordinates":[-75.5359667,10.39895]}},{"type":"Feature","properties":{"name":"COVENAS OFFSHORE TERMINAL","lng":-75.73333333,"lat":9.5,"portId":28333},"geometry":{"type":"Point","coordinates":[-75.73333333,9.5]}},{"type":"Feature","properties":{"name":"POZOS COLORADOS","lng":-74.2532833,"lat":11.1558333,"portId":28381},"geometry":{"type":"Point","coordinates":[-74.2532833,11.1558333]}},{"type":"Feature","properties":{"name":"SANTA MARTA","lng":-74.2164167,"lat":11.2517,"portId":28479},"geometry":{"type":"Point","coordinates":[-74.2164167,11.2517]}},{"type":"Feature","properties":{"name":"TUMACO","lng":-78.81666667,"lat":1.850000023,"portId":28503},"geometry":{"type":"Point","coordinates":[-78.81666667,1.850000023]}},{"type":"Feature","properties":{"name":"MAMONAL","lng":-75.53333333,"lat":10.33333302,"portId":29526},"geometry":{"type":"Point","coordinates":[-75.53333333,10.33333302]}},{"type":"Feature","properties":{"name":"PUERTO BOLIVAR","lng":-71.9598833,"lat":12.26055,"portId":29567},"geometry":{"type":"Point","coordinates":[-71.9598833,12.26055]}},{"type":"Feature","properties":{"name":"DZAOUDZI","lng":45.16666667,"lat":-12.83333302,"portId":13217},"geometry":{"type":"Point","coordinates":[45.16666667,-12.83333302]}},{"type":"Feature","properties":{"name":"LONGONI","lng":45.25,"lat":-12.78333378,"portId":13313},"geometry":{"type":"Point","coordinates":[45.25,-12.78333378]}},{"type":"Feature","properties":{"name":"PAMANZI BAY","lng":45.25,"lat":-12.78333378,"portId":15118},"geometry":{"type":"Point","coordinates":[45.25,-12.78333378]}},{"type":"Feature","properties":{"name":"MAYOTTE","lng":45.25,"lat":-12.78333378,"portId":17099},"geometry":{"type":"Point","coordinates":[45.25,-12.78333378]}},{"type":"Feature","properties":{"name":"YOMBO TERMINAL","lng":11.1,"lat":-4.466666698,"portId":25592},"geometry":{"type":"Point","coordinates":[11.1,-4.466666698]}},{"type":"Feature","properties":{"name":"DJENO","lng":11.91666667,"lat":-4.900000095,"portId":28576},"geometry":{"type":"Point","coordinates":[11.91666667,-4.900000095]}},{"type":"Feature","properties":{"name":"POINTE-NOIRE","lng":11.8282167,"lat":-4.7821667,"portId":28605},"geometry":{"type":"Point","coordinates":[11.8282167,-4.7821667]}},{"type":"Feature","properties":{"name":"PUERTO MOIN","lng":-83.08333333,"lat":10.0,"portId":25442},"geometry":{"type":"Point","coordinates":[-83.08333333,10.0]}},{"type":"Feature","properties":{"name":"PUERTO LIMON","lng":-83.0216667,"lat":9.9853833,"portId":28781},"geometry":{"type":"Point","coordinates":[-83.0216667,9.9853833]}},{"type":"Feature","properties":{"name":"CALDERA","lng":-84.7207833,"lat":9.9139337,"portId":29710},"geometry":{"type":"Point","coordinates":[-84.7207833,9.9139337]}},{"type":"Feature","properties":{"name":"ABIDJAN","lng":-4.0091667,"lat":5.2549,"portId":13321},"geometry":{"type":"Point","coordinates":[-4.0091667,5.2549]}},{"type":"Feature","properties":{"name":"CANAL DE VRIDI","lng":-4.0,"lat":5.316666603,"portId":14850},"geometry":{"type":"Point","coordinates":[-4.0,5.316666603]}},{"type":"Feature","properties":{"name":"BANCO BAY","lng":-4.0312167,"lat":5.3293167,"portId":14890},"geometry":{"type":"Point","coordinates":[-4.0312167,5.3293167]}},{"type":"Feature","properties":{"name":"LOCODJO","lng":-4.0,"lat":5.30000019,"portId":14930},"geometry":{"type":"Point","coordinates":[-4.0,5.30000019]}},{"type":"Feature","properties":{"name":"FPSO ESPOIR IVORIEN","lng":-4.45,"lat":5.033333301,"portId":253021},"geometry":{"type":"Point","coordinates":[-4.45,5.033333301]}},{"type":"Feature","properties":{"name":"FPSO BAOBAB IVOIRIEN MV10","lng":-4.5496,"lat":4.9713833,"portId":282289},"geometry":{"type":"Point","coordinates":[-4.5496,4.9713833]}},{"type":"Feature","properties":{"name":"KARDELJEVO","lng":17.41503736,"lat":43.04663849,"portId":11541},"geometry":{"type":"Point","coordinates":[17.41503736,43.04663849]}},{"type":"Feature","properties":{"name":"PLOCE","lng":17.41975,"lat":43.03565,"portId":21473},"geometry":{"type":"Point","coordinates":[17.41975,43.03565]}},{"type":"Feature","properties":{"name":"SPLIT","lng":16.4328167,"lat":43.5003667,"portId":21556},"geometry":{"type":"Point","coordinates":[16.4328167,43.5003667]}},{"type":"Feature","properties":{"name":"ZADAR","lng":15.22615,"lat":44.1185833,"portId":21622},"geometry":{"type":"Point","coordinates":[15.22615,44.1185833]}},{"type":"Feature","properties":{"name":"GAZENICA","lng":15.2647167,"lat":44.0908833,"portId":23594},"geometry":{"type":"Point","coordinates":[15.2647167,44.0908833]}},{"type":"Feature","properties":{"name":"OMISALJ","lng":14.5438667,"lat":45.21885,"portId":24908},"geometry":{"type":"Point","coordinates":[14.5438667,45.21885]}},{"type":"Feature","properties":{"name":"RIJEKA","lng":14.43335,"lat":45.3266833,"portId":24951},"geometry":{"type":"Point","coordinates":[14.43335,45.3266833]}},{"type":"Feature","properties":{"name":"SUSAK","lng":14.4418333,"lat":45.3228667,"portId":26970},"geometry":{"type":"Point","coordinates":[14.4418333,45.3228667]}},{"type":"Feature","properties":{"name":"BAKAR","lng":14.55225,"lat":45.2941667,"portId":26991},"geometry":{"type":"Point","coordinates":[14.55225,45.2941667]}},{"type":"Feature","properties":{"name":"URINJ","lng":14.547,"lat":45.2763333,"portId":27033},"geometry":{"type":"Point","coordinates":[14.547,45.2763333]}},{"type":"Feature","properties":{"name":"RASA PORT","lng":14.0509667,"lat":45.0267,"portId":29106},"geometry":{"type":"Point","coordinates":[14.0509667,45.0267]}},{"type":"Feature","properties":{"name":"SEPEN","lng":14.53545,"lat":45.2031833,"portId":29155},"geometry":{"type":"Point","coordinates":[14.53545,45.2031833]}},{"type":"Feature","properties":{"name":"SRECICA","lng":14.5558333,"lat":45.2791667,"portId":29287},"geometry":{"type":"Point","coordinates":[14.5558333,45.2791667]}},{"type":"Feature","properties":{"name":"NICARO","lng":-75.55,"lat":20.71666718,"portId":15427},"geometry":{"type":"Point","coordinates":[-75.55,20.71666718]}},{"type":"Feature","properties":{"name":"PASTELILLO","lng":-77.35478942,"lat":21.61643982,"portId":24497},"geometry":{"type":"Point","coordinates":[-77.35478942,21.61643982]}},{"type":"Feature","properties":{"name":"TARAFA","lng":-77.36520583,"lat":21.60602379,"portId":27522},"geometry":{"type":"Point","coordinates":[-77.36520583,21.60602379]}},{"type":"Feature","properties":{"name":"ANTILLA","lng":-75.7442,"lat":20.8233167,"portId":28904},"geometry":{"type":"Point","coordinates":[-75.7442,20.8233167]}},{"type":"Feature","properties":{"name":"FELTON","lng":-75.59365,"lat":20.7401333,"portId":29363},"geometry":{"type":"Point","coordinates":[-75.59365,20.7401333]}},{"type":"Feature","properties":{"name":"GUANTANAMO","lng":-75.1523,"lat":19.9200667,"portId":29416},"geometry":{"type":"Point","coordinates":[-75.1523,19.9200667]}},{"type":"Feature","properties":{"name":"HAVANA","lng":-82.3574667,"lat":23.1483667,"portId":29421},"geometry":{"type":"Point","coordinates":[-82.3574667,23.1483667]}},{"type":"Feature","properties":{"name":"MANZANILLO","lng":-77.1863167,"lat":20.34885,"portId":29595},"geometry":{"type":"Point","coordinates":[-77.1863167,20.34885]}},{"type":"Feature","properties":{"name":"MARIEL","lng":-82.7556667,"lat":23.0010664,"portId":29675},"geometry":{"type":"Point","coordinates":[-82.7556667,23.0010664]}},{"type":"Feature","properties":{"name":"MATANZAS","lng":-81.56666667,"lat":23.049999239999998,"portId":29712},"geometry":{"type":"Point","coordinates":[-81.56666667,23.049999239999998]}},{"type":"Feature","properties":{"name":"CARDENAS","lng":-81.1960333,"lat":23.0488,"portId":29756},"geometry":{"type":"Point","coordinates":[-81.1960333,23.0488]}},{"type":"Feature","properties":{"name":"MOA","lng":-74.86666667,"lat":20.68333244,"portId":29759},"geometry":{"type":"Point","coordinates":[-74.86666667,20.68333244]}},{"type":"Feature","properties":{"name":"CIENFUEGOS","lng":-80.47605,"lat":22.16385,"portId":29794},"geometry":{"type":"Point","coordinates":[-80.47605,22.16385]}},{"type":"Feature","properties":{"name":"PRESTON","lng":-75.658,"lat":20.7583333,"portId":29807},"geometry":{"type":"Point","coordinates":[-75.658,20.7583333]}},{"type":"Feature","properties":{"name":"NUEVITAS","lng":-77.2248667,"lat":21.5582333,"portId":29824},"geometry":{"type":"Point","coordinates":[-77.2248667,21.5582333]}},{"type":"Feature","properties":{"name":"SANTIAGO DE CUBA","lng":-75.86666667,"lat":19.96666718,"portId":30028},"geometry":{"type":"Point","coordinates":[-75.86666667,19.96666718]}},{"type":"Feature","properties":{"name":"BULLEN BAY","lng":-69.03333333,"lat":12.1833334,"portId":10501},"geometry":{"type":"Point","coordinates":[-69.03333333,12.1833334]}},{"type":"Feature","properties":{"name":"EMMASTAD","lng":-68.95,"lat":12.13333321,"portId":10724},"geometry":{"type":"Point","coordinates":[-68.95,12.13333321]}},{"type":"Feature","properties":{"name":"WILLEMSTAD","lng":-68.9367,"lat":12.1036,"portId":23725},"geometry":{"type":"Point","coordinates":[-68.9367,12.1036]}},{"type":"Feature","properties":{"name":"LARNACA","lng":33.6428667,"lat":34.92665,"portId":10136},"geometry":{"type":"Point","coordinates":[33.6428667,34.92665]}},{"type":"Feature","properties":{"name":"VASSILIKO","lng":33.3158333,"lat":34.7173167,"portId":10207},"geometry":{"type":"Point","coordinates":[33.3158333,34.7173167]}},{"type":"Feature","properties":{"name":"XEROS","lng":32.81666667,"lat":35.13333511,"portId":11180},"geometry":{"type":"Point","coordinates":[32.81666667,35.13333511]}},{"type":"Feature","properties":{"name":"AKROTIRI","lng":33.0328833,"lat":34.5719167,"portId":15763},"geometry":{"type":"Point","coordinates":[33.0328833,34.5719167]}},{"type":"Feature","properties":{"name":"LIMASSOL","lng":33.0247333,"lat":34.6497333,"portId":21024},"geometry":{"type":"Point","coordinates":[33.0247333,34.6497333]}},{"type":"Feature","properties":{"name":"MONI","lng":33.1808167,"lat":34.6997667,"portId":21054},"geometry":{"type":"Point","coordinates":[33.1808167,34.6997667]}},{"type":"Feature","properties":{"name":"DHEKELIA","lng":33.7524667,"lat":34.9730167,"portId":30153},"geometry":{"type":"Point","coordinates":[33.7524667,34.9730167]}},{"type":"Feature","properties":{"name":"MOANDA OIL TERMINAL","lng":12.11,"lat":-5.973,"portId":13467},"geometry":{"type":"Point","coordinates":[12.11,-5.973]}},{"type":"Feature","properties":{"name":"ANGO-ANGO","lng":13.4333333,"lat":-5.845,"portId":13483},"geometry":{"type":"Point","coordinates":[13.4333333,-5.845]}},{"type":"Feature","properties":{"name":"BANANA","lng":12.4181667,"lat":-5.9823,"portId":21696},"geometry":{"type":"Point","coordinates":[12.4181667,-5.9823]}},{"type":"Feature","properties":{"name":"MUANDA OIL TERMINAL","lng":12.111,"lat":-5.9733334,"portId":285038},"geometry":{"type":"Point","coordinates":[12.111,-5.9733334]}},{"type":"Feature","properties":{"name":"COPENHAGEN","lng":12.6270667,"lat":55.7080167,"portId":10563},"geometry":{"type":"Point","coordinates":[12.6270667,55.7080167]}},{"type":"Feature","properties":{"name":"ENSTED","lng":9.4502667,"lat":55.0256167,"portId":10635},"geometry":{"type":"Point","coordinates":[9.4502667,55.0256167]}},{"type":"Feature","properties":{"name":"AABENRAA","lng":9.4290667,"lat":55.0406667,"portId":10267},"geometry":{"type":"Point","coordinates":[9.4290667,55.0406667]}},{"type":"Feature","properties":{"name":"AALBORG","lng":9.933333333,"lat":57.04999924,"portId":10328},"geometry":{"type":"Point","coordinates":[9.933333333,57.04999924]}},{"type":"Feature","properties":{"name":"AARHUS","lng":10.2386167,"lat":56.16035,"portId":10358},"geometry":{"type":"Point","coordinates":[10.2386167,56.16035]}},{"type":"Feature","properties":{"name":"ESBJERG","lng":8.4250667,"lat":55.4641833,"portId":10685},"geometry":{"type":"Point","coordinates":[8.4250667,55.4641833]}},{"type":"Feature","properties":{"name":"FREDERIKSHAVN","lng":10.5512333,"lat":57.4342667,"portId":10900},"geometry":{"type":"Point","coordinates":[10.5512333,57.4342667]}},{"type":"Feature","properties":{"name":"GULFHAVN","lng":11.25385,"lat":55.1983341,"portId":11099},"geometry":{"type":"Point","coordinates":[11.25385,55.1983341]}},{"type":"Feature","properties":{"name":"KALUNDBORG","lng":11.08333333,"lat":55.68333435,"portId":11534},"geometry":{"type":"Point","coordinates":[11.08333333,55.68333435]}},{"type":"Feature","properties":{"name":"KORSOER","lng":11.13333333,"lat":55.33333206,"portId":11709},"geometry":{"type":"Point","coordinates":[11.13333333,55.33333206]}},{"type":"Feature","properties":{"name":"KYNDBY","lng":11.8747,"lat":55.80955,"portId":11740},"geometry":{"type":"Point","coordinates":[11.8747,55.80955]}},{"type":"Feature","properties":{"name":"NYBORG","lng":10.7975,"lat":55.2964333,"portId":11965},"geometry":{"type":"Point","coordinates":[10.7975,55.2964333]}},{"type":"Feature","properties":{"name":"ODENSE","lng":10.37975,"lat":55.4218833,"portId":12069},"geometry":{"type":"Point","coordinates":[10.37975,55.4218833]}},{"type":"Feature","properties":{"name":"RONNE","lng":14.68333333,"lat":55.08333206,"portId":12481},"geometry":{"type":"Point","coordinates":[14.68333333,55.08333206]}},{"type":"Feature","properties":{"name":"LINDOE TERMINAL","lng":10.53333333,"lat":55.46666718,"portId":19196},"geometry":{"type":"Point","coordinates":[10.53333333,55.46666718]}},{"type":"Feature","properties":{"name":"STIGSNAESVAERKETS HAVN","lng":11.2436666,"lat":55.2055,"portId":23534},"geometry":{"type":"Point","coordinates":[11.2436666,55.2055]}},{"type":"Feature","properties":{"name":"AVERNAKKE","lng":10.8,"lat":55.29999924,"portId":24797},"geometry":{"type":"Point","coordinates":[10.8,55.29999924]}},{"type":"Feature","properties":{"name":"LINDHOLM","lng":10.81666667,"lat":55.29999924,"portId":24867},"geometry":{"type":"Point","coordinates":[10.81666667,55.29999924]}},{"type":"Feature","properties":{"name":"ASNAESVAERKETS HAVN","lng":11.08333333,"lat":55.66666794,"portId":26933},"geometry":{"type":"Point","coordinates":[11.08333333,55.66666794]}},{"type":"Feature","properties":{"name":"MASNEDOVAERKETS HAVN","lng":11.8891001,"lat":54.9879837,"portId":27052},"geometry":{"type":"Point","coordinates":[11.8891001,54.9879837]}},{"type":"Feature","properties":{"name":"SKAERBAEKVAERKET HAVN","lng":9.6171333,"lat":55.5097333,"portId":27260},"geometry":{"type":"Point","coordinates":[9.6171333,55.5097333]}},{"type":"Feature","properties":{"name":"STUDSTRUP","lng":10.35,"lat":56.25,"portId":27353},"geometry":{"type":"Point","coordinates":[10.35,56.25]}},{"type":"Feature","properties":{"name":"FREDERICIA","lng":9.7467333,"lat":55.5565167,"portId":254798},"geometry":{"type":"Point","coordinates":[9.7467333,55.5565167]}},{"type":"Feature","properties":{"name":"DJIBOUTI","lng":43.1314167,"lat":11.6028833,"portId":13395},"geometry":{"type":"Point","coordinates":[43.1314167,11.6028833]}},{"type":"Feature","properties":{"name":"RIO HAINA","lng":-70.0178167,"lat":18.4138833,"portId":13613},"geometry":{"type":"Point","coordinates":[-70.0178167,18.4138833]}},{"type":"Feature","properties":{"name":"LA ROMANA","lng":-68.95,"lat":18.43333244,"portId":13649},"geometry":{"type":"Point","coordinates":[-68.95,18.43333244]}},{"type":"Feature","properties":{"name":"PALENQUE","lng":-70.18333333,"lat":18.20000076,"portId":13688},"geometry":{"type":"Point","coordinates":[-70.18333333,18.20000076]}},{"type":"Feature","properties":{"name":"PUERTO PLATA","lng":-70.7,"lat":19.81666756,"portId":13734},"geometry":{"type":"Point","coordinates":[-70.7,19.81666756]}},{"type":"Feature","properties":{"name":"PUERTO VIEJO DE AZUA","lng":-70.8360667,"lat":18.3459167,"portId":13760},"geometry":{"type":"Point","coordinates":[-70.8360667,18.3459167]}},{"type":"Feature","properties":{"name":"SAN PEDRO DE MACORIS","lng":-69.3133667,"lat":18.4373667,"portId":14034},"geometry":{"type":"Point","coordinates":[-69.3133667,18.4373667]}},{"type":"Feature","properties":{"name":"SANTO DOMINGO","lng":-69.8841667,"lat":18.466,"portId":14095},"geometry":{"type":"Point","coordinates":[-69.8841667,18.466]}},{"type":"Feature","properties":{"name":"SANS SOUCI","lng":-69.88333333,"lat":18.46666718,"portId":214685},"geometry":{"type":"Point","coordinates":[-69.88333333,18.46666718]}},{"type":"Feature","properties":{"name":"BALAO TERMINAL","lng":-79.73333333,"lat":1.033333301,"portId":11218},"geometry":{"type":"Point","coordinates":[-79.73333333,1.033333301]}},{"type":"Feature","properties":{"name":"ESMERALDAS","lng":-79.6431,"lat":0.99285,"portId":14226},"geometry":{"type":"Point","coordinates":[-79.6431,0.99285]}},{"type":"Feature","properties":{"name":"LA LIBERTAD","lng":-80.91666667,"lat":-2.216666698,"portId":14299},"geometry":{"type":"Point","coordinates":[-80.91666667,-2.216666698]}},{"type":"Feature","properties":{"name":"GUAYAQUIL","lng":-79.9093167,"lat":-2.2821167,"portId":29876},"geometry":{"type":"Point","coordinates":[-79.9093167,-2.2821167]}},{"type":"Feature","properties":{"name":"TEPRE TERMINAL","lng":-79.66666667,"lat":1.01666665,"portId":213169},"geometry":{"type":"Point","coordinates":[-79.66666667,1.01666665]}},{"type":"Feature","properties":{"name":"ANDIPORT","lng":-79.89805,"lat":-2.28555,"portId":215946},"geometry":{"type":"Point","coordinates":[-79.89805,-2.28555]}},{"type":"Feature","properties":{"name":"MERSA EL HAMRA","lng":28.83146458,"lat":30.89421654,"portId":14754},"geometry":{"type":"Point","coordinates":[28.83146458,30.89421654]}},{"type":"Feature","properties":{"name":"PORT SAID","lng":32.3223,"lat":31.2687,"portId":14867},"geometry":{"type":"Point","coordinates":[32.3223,31.2687]}},{"type":"Feature","properties":{"name":"RAS GHARIB","lng":33.1411667,"lat":28.3367167,"portId":14880},"geometry":{"type":"Point","coordinates":[33.1411667,28.3367167]}},{"type":"Feature","properties":{"name":"SUEZ","lng":32.5426667,"lat":29.9386667,"portId":14928},"geometry":{"type":"Point","coordinates":[32.5426667,29.9386667]}},{"type":"Feature","properties":{"name":"WADI FEIRAN TERMINAL","lng":33.2012833,"lat":28.7453333,"portId":14994},"geometry":{"type":"Point","coordinates":[33.2012833,28.7453333]}},{"type":"Feature","properties":{"name":"AIN SUKHNA TERMINAL","lng":32.3906333,"lat":29.5796667,"portId":17275},"geometry":{"type":"Point","coordinates":[32.3906333,29.5796667]}},{"type":"Feature","properties":{"name":"GEISUM TERMINAL","lng":33.70989008,"lat":27.66132355,"portId":17491},"geometry":{"type":"Point","coordinates":[33.70989008,27.66132355]}},{"type":"Feature","properties":{"name":"RAS BUDRAN","lng":33.1679167,"lat":28.93605,"portId":17783},"geometry":{"type":"Point","coordinates":[33.1679167,28.93605]}},{"type":"Feature","properties":{"name":"SIDI KERIR TERMINAL","lng":29.6224167,"lat":31.0929667,"portId":17927},"geometry":{"type":"Point","coordinates":[29.6224167,31.0929667]}},{"type":"Feature","properties":{"name":"RAS SHUKHEIR","lng":33.28333333,"lat":28.13333321,"portId":18015},"geometry":{"type":"Point","coordinates":[33.28333333,28.13333321]}},{"type":"Feature","properties":{"name":"ZEIT BAY TERMINAL","lng":33.59705502,"lat":27.85136223,"portId":18053},"geometry":{"type":"Point","coordinates":[33.59705502,27.85136223]}},{"type":"Feature","properties":{"name":"EAST ZEIT TERMINAL","lng":33.6,"lat":27.85000038,"portId":22821},"geometry":{"type":"Point","coordinates":[33.6,27.85000038]}},{"type":"Feature","properties":{"name":"ALEXANDRIA","lng":29.8619667,"lat":31.1824833,"portId":252278},"geometry":{"type":"Point","coordinates":[29.8619667,31.1824833]}},{"type":"Feature","properties":{"name":"FPSO AL ZAAFARANA","lng":32.6934167,"lat":29.1758,"portId":252473},"geometry":{"type":"Point","coordinates":[32.6934167,29.1758]}},{"type":"Feature","properties":{"name":"AIN SUKHNA PORT","lng":32.3906333,"lat":29.5796667,"portId":336998},"geometry":{"type":"Point","coordinates":[32.3906333,29.5796667]}},{"type":"Feature","properties":{"name":"CUTUCO","lng":-87.81666667,"lat":13.333333,"portId":15107},"geometry":{"type":"Point","coordinates":[-87.81666667,13.333333]}},{"type":"Feature","properties":{"name":"ACAJUTLA OFFSHORE TERMINAL","lng":-89.86666667,"lat":13.58333302,"portId":23020},"geometry":{"type":"Point","coordinates":[-89.86666667,13.58333302]}},{"type":"Feature","properties":{"name":"ACAJUTLA","lng":-89.8392333,"lat":13.5752167,"portId":29902},"geometry":{"type":"Point","coordinates":[-89.8392333,13.5752167]}},{"type":"Feature","properties":{"name":"BATA","lng":9.736883,"lat":1.8232744,"portId":15332},"geometry":{"type":"Point","coordinates":[9.736883,1.8232744]}},{"type":"Feature","properties":{"name":"LUBA","lng":8.55,"lat":3.466666698,"portId":15443},"geometry":{"type":"Point","coordinates":[8.55,3.466666698]}},{"type":"Feature","properties":{"name":"ZAFIRO MARINE TERMINAL","lng":8.0833333,"lat":3.7999999,"portId":226807},"geometry":{"type":"Point","coordinates":[8.0833333,3.7999999]}},{"type":"Feature","properties":{"name":"CEIBA MARINE TERMINAL","lng":9.22895,"lat":1.4104,"portId":234626},"geometry":{"type":"Point","coordinates":[9.22895,1.4104]}},{"type":"Feature","properties":{"name":"PUNTA EUROPA TERMINAL","lng":8.716666666,"lat":3.783333301,"portId":252282},"geometry":{"type":"Point","coordinates":[8.716666666,3.783333301]}},{"type":"Feature","properties":{"name":"SERPENTINA OIL TERMINAL","lng":8.0833333,"lat":3.7999999,"portId":375080},"geometry":{"type":"Point","coordinates":[8.0833333,3.7999999]}},{"type":"Feature","properties":{"name":"ASSAB","lng":42.7489333,"lat":13.0003167,"portId":15537},"geometry":{"type":"Point","coordinates":[42.7489333,13.0003167]}},{"type":"Feature","properties":{"name":"MASSAWA","lng":39.4805667,"lat":15.6157,"portId":15572},"geometry":{"type":"Point","coordinates":[39.4805667,15.6157]}},{"type":"Feature","properties":{"name":"MUUGA-PORT OF TALLINN","lng":24.95,"lat":59.5,"portId":12292},"geometry":{"type":"Point","coordinates":[24.95,59.5]}},{"type":"Feature","properties":{"name":"PALJASSAARE-PORT OF TALLINN","lng":24.7143167,"lat":59.4609333,"portId":12742},"geometry":{"type":"Point","coordinates":[24.7143167,59.4609333]}},{"type":"Feature","properties":{"name":"PALDISKI-PORT OF TALLINN","lng":24.0808667,"lat":59.3321833,"portId":12765},"geometry":{"type":"Point","coordinates":[24.0808667,59.3321833]}},{"type":"Feature","properties":{"name":"KESKLINNA","lng":24.7746667,"lat":59.4472167,"portId":17367},"geometry":{"type":"Point","coordinates":[24.7746667,59.4472167]}},{"type":"Feature","properties":{"name":"TALLINN","lng":24.7746667,"lat":59.4472167,"portId":18867},"geometry":{"type":"Point","coordinates":[24.7746667,59.4472167]}},{"type":"Feature","properties":{"name":"NOVOTALLINSKY","lng":24.95,"lat":59.5,"portId":21895},"geometry":{"type":"Point","coordinates":[24.95,59.5]}},{"type":"Feature","properties":{"name":"KOPLI","lng":24.7143167,"lat":59.4609333,"portId":225339},"geometry":{"type":"Point","coordinates":[24.7143167,59.4609333]}},{"type":"Feature","properties":{"name":"MIIDURANNA","lng":24.81305,"lat":59.4994333,"portId":252147},"geometry":{"type":"Point","coordinates":[24.81305,59.4994333]}},{"type":"Feature","properties":{"name":"SILLAMAE","lng":27.7331333,"lat":59.42445,"portId":283336},"geometry":{"type":"Point","coordinates":[27.7331333,59.42445]}},{"type":"Feature","properties":{"name":"TORSHAVN","lng":-6.76090132,"lat":61.99923325,"portId":15773},"geometry":{"type":"Point","coordinates":[-6.76090132,61.99923325]}},{"type":"Feature","properties":{"name":"STANLEY","lng":-57.8425,"lat":-51.69195,"portId":15656},"geometry":{"type":"Point","coordinates":[-57.8425,-51.69195]}},{"type":"Feature","properties":{"name":"PORT STANLEY","lng":-57.8425,"lat":-51.69195,"portId":21112},"geometry":{"type":"Point","coordinates":[-57.8425,-51.69195]}},{"type":"Feature","properties":{"name":"WALU BAY","lng":178.4333333,"lat":-18.11666679,"portId":10612},"geometry":{"type":"Point","coordinates":[178.4333333,-18.11666679]}},{"type":"Feature","properties":{"name":"LAUTOKA","lng":177.45,"lat":-17.60000038,"portId":15958},"geometry":{"type":"Point","coordinates":[177.45,-17.60000038]}},{"type":"Feature","properties":{"name":"LEVUKA","lng":178.85,"lat":-17.68333244,"portId":15994},"geometry":{"type":"Point","coordinates":[178.85,-17.68333244]}},{"type":"Feature","properties":{"name":"SUVA","lng":178.4333333,"lat":-18.13333321,"portId":16200},"geometry":{"type":"Point","coordinates":[178.4333333,-18.13333321]}},{"type":"Feature","properties":{"name":"VUDA POINT TERMINAL","lng":177.3843333,"lat":-17.6901667,"portId":421115},"geometry":{"type":"Point","coordinates":[177.3843333,-17.6901667]}},{"type":"Feature","properties":{"name":"HAMINA","lng":27.1709,"lat":60.51975,"portId":16389},